{
  "type": "FeatureCollection",
  "features": [
    {
      "type": "Feature",
      "properties": {
        "name": "Boulangerie Patisserie Monnin Mourey"
      },
      "geometry": {
        "type": "Point",
        "coordinates": [
          5.866986,
          47.313188
        ]
      }
    },
    {
      "type": "Feature",
      "properties": {
        "name": "Boulangerie Pâtisserie"
      },
      "geometry": {
        "type": "Point",
        "coordinates": [
          5.958017,
          47.301388
        ]
      }
    },
    {
      "type": "Feature",
      "properties": {
        "name": "La Geneuilloise"
      },
      "geometry": {
        "type": "Point",
        "coordinates": [
          5.95816,
          47.301311
        ]
      }
    },
    {
      "type": "Feature",
      "properties": {
        "name": "Ruhland Christian"
      },
      "geometry": {
        "type": "Point",
        "coordinates": [
          5.846602,
          47.425768
        ]
      }
    },
    {
      "type": "Feature",
      "properties": {
        "name": "Maison Paroty Bucey les Gy"
      },
      "geometry": {
        "type": "Point",
        "coordinates": [
          5.838347,
          47.424111
        ]
      }
    },
    {
      "type": "Feature",
      "properties": {
        "name": "Boulangerie Patisserie J Dargier Joel"
      },
      "geometry": {
        "type": "Point",
        "coordinates": [
          5.862042,
          47.546544
        ]
      }
    },
    {
      "type": "Feature",
      "properties": {
        "name": "Le Petit Mitron"
      },
      "geometry": {
        "type": "Point",
        "coordinates": [
          5.861891,
          47.546686
        ]
      }
    },
    {
      "type": "Feature",
      "properties": {
        "name": "Au Coeur Fondant"
      },
      "geometry": {
        "type": "Point",
        "coordinates": [
          5.946571,
          47.487671
        ]
      }
    },
    {
      "type": "Feature",
      "properties": {
        "name": "Le Fournil de Léon"
      },
      "geometry": {
        "type": "Point",
        "coordinates": [
          5.953829,
          47.570777
        ]
      }
    },
    {
      "type": "Feature",
      "properties": {
        "name": "au fournil de la Modestine"
      },
      "geometry": {
        "type": "Point",
        "coordinates": [
          5.834899,
          47.690293
        ]
      }
    },
    {
      "type": "Feature",
      "properties": {
        "name": "Maison Paroty Combeaufontaine"
      },
      "geometry": {
        "type": "Point",
        "coordinates": [
          5.888585,
          47.711879
        ]
      }
    },
    {
      "type": "Feature",
      "properties": {
        "name": "Le mitron des copains"
      },
      "geometry": {
        "type": "Point",
        "coordinates": [
          5.902803,
          47.82456
        ]
      }
    },
    {
      "type": "Feature",
      "properties": {
        "name": "Aristorena Jean-Marc"
      },
      "geometry": {
        "type": "Point",
        "coordinates": [
          5.902882,
          47.824564
        ]
      }
    },
    {
      "type": "Feature",
      "properties": {
        "name": "Au Péché Sucré"
      },
      "geometry": {
        "type": "Point",
        "coordinates": [
          5.901378,
          47.825722
        ]
      }
    },
    {
      "type": "Feature",
      "properties": {
        "name": "Au bonheur du blé"
      },
      "geometry": {
        "type": "Point",
        "coordinates": [
          5.899334,
          47.82755
        ]
      }
    },
    {
      "type": "Feature",
      "properties": {
        "name": "Gevigney-et-Mercey"
      },
      "geometry": {
        "type": "Point",
        "coordinates": [
          5.930791,
          47.798574
        ]
      }
    },
    {
      "type": "Feature",
      "properties": {
        "name": "Gerard Christophe"
      },
      "geometry": {
        "type": "Point",
        "coordinates": [
          5.869768,
          47.875486
        ]
      }
    },
    {
      "type": "Feature",
      "properties": {
        "name": "Gérard Christophe"
      },
      "geometry": {
        "type": "Point",
        "coordinates": [
          5.856503,
          47.842671
        ]
      }
    },
    {
      "type": "Feature",
      "properties": {
        "name": "Salon de Thé"
      },
      "geometry": {
        "type": "Point",
        "coordinates": [
          5.885918,
          47.948371
        ]
      }
    },
    {
      "type": "Feature",
      "properties": {
        "name": "Belet Philippe Louis"
      },
      "geometry": {
        "type": "Point",
        "coordinates": [
          5.882627,
          48.085728
        ]
      }
    },
    {
      "type": "Feature",
      "properties": {
        "name": "Au Fournil de Romain"
      },
      "geometry": {
        "type": "Point",
        "coordinates": [
          5.823349,
          48.104411
        ]
      }
    },
    {
      "type": "Feature",
      "properties": {
        "name": "Le Pain sur la Planche"
      },
      "geometry": {
        "type": "Point",
        "coordinates": [
          5.89453,
          48.179824
        ]
      }
    },
    {
      "type": "Feature",
      "properties": {
        "name": "Les goûts thés des Thermes"
      },
      "geometry": {
        "type": "Point",
        "coordinates": [
          5.894161,
          48.181925
        ]
      }
    },
    {
      "type": "Feature",
      "properties": {
        "name": "Thiriet Gérard"
      },
      "geometry": {
        "type": "Point",
        "coordinates": [
          5.895128,
          48.18255
        ]
      }
    },
    {
      "type": "Feature",
      "properties": {
        "name": "Marie Blachère Boulangerie Sandwicherie Tarterie"
      },
      "geometry": {
        "type": "Point",
        "coordinates": [
          5.884379,
          48.189315
        ]
      }
    },
    {
      "type": "Feature",
      "properties": {
        "name": "Boulangerie Patisserie Thiriet"
      },
      "geometry": {
        "type": "Point",
        "coordinates": [
          5.835614,
          48.207738
        ]
      }
    },
    {
      "type": "Feature",
      "properties": {
        "name": "Boulangerie Destrigneville"
      },
      "geometry": {
        "type": "Point",
        "coordinates": [
          5.834357,
          48.208739
        ]
      }
    },
    {
      "type": "Feature",
      "properties": {
        "name": "Martin"
      },
      "geometry": {
        "type": "Point",
        "coordinates": [
          5.895484,
          48.297583
        ]
      }
    },
    {
      "type": "Feature",
      "properties": {
        "name": "Au Pétrin Vosgien"
      },
      "geometry": {
        "type": "Point",
        "coordinates": [
          5.895472,
          48.297569
        ]
      }
    },
    {
      "type": "Feature",
      "properties": {
        "name": "Boulangerie Pàtisserie Louvard"
      },
      "geometry": {
        "type": "Point",
        "coordinates": [
          5.933216,
          48.311622
        ]
      }
    },
    {
      "type": "Feature",
      "properties": {
        "name": "Le Dagobert"
      },
      "geometry": {
        "type": "Point",
        "coordinates": [
          5.935965,
          48.383215
        ]
      }
    },
    {
      "type": "Feature",
      "properties": {
        "name": "Pâtissier Chocolatier \"Au Péché Mignon\""
      },
      "geometry": {
        "type": "Point",
        "coordinates": [
          5.949239,
          48.200212
        ]
      }
    },
    {
      "type": "Feature",
      "properties": {
        "name": "Yvonne coffee shop"
      },
      "geometry": {
        "type": "Point",
        "coordinates": [
          5.947457,
          48.201269
        ]
      }
    },
    {
      "type": "Feature",
      "properties": {
        "name": "Pâtisserie Chocolaterie \"Alex & Amel\""
      },
      "geometry": {
        "type": "Point",
        "coordinates": [
          5.945876,
          48.201528
        ]
      }
    },
    {
      "type": "Feature",
      "properties": {
        "name": "L’Ami du Pain"
      },
      "geometry": {
        "type": "Point",
        "coordinates": [
          5.945272,
          48.201673
        ]
      }
    },
    {
      "type": "Feature",
      "properties": {
        "name": "Boulangerie MERAT"
      },
      "geometry": {
        "type": "Point",
        "coordinates": [
          5.941472,
          48.198018
        ]
      }
    },
    {
      "type": "Feature",
      "properties": {
        "name": "À la pépite d'or"
      },
      "geometry": {
        "type": "Point",
        "coordinates": [
          5.94436,
          48.20198
        ]
      }
    },
    {
      "type": "Feature",
      "properties": {
        "name": "Boulangerie Fritsch"
      },
      "geometry": {
        "type": "Point",
        "coordinates": [
          5.951205,
          48.199314
        ]
      }
    },
    {
      "type": "Feature",
      "properties": {
        "name": "Chez Delphine et Kévin"
      },
      "geometry": {
        "type": "Point",
        "coordinates": [
          5.950475,
          48.201308
        ]
      }
    },
    {
      "type": "Feature",
      "properties": {
        "name": "Boulangerie Olivier Aubertin"
      },
      "geometry": {
        "type": "Point",
        "coordinates": [
          5.957772,
          48.466567
        ]
      }
    },
    {
      "type": "Feature",
      "properties": {
        "name": "Mes Gourmandises"
      },
      "geometry": {
        "type": "Point",
        "coordinates": [
          5.957881,
          48.469546
        ]
      }
    },
    {
      "type": "Feature",
      "properties": {
        "name": "Place aux Délices"
      },
      "geometry": {
        "type": "Point",
        "coordinates": [
          5.897217,
          48.527009
        ]
      }
    },
    {
      "type": "Feature",
      "properties": {
        "name": "Maison Boulanger"
      },
      "geometry": {
        "type": "Point",
        "coordinates": [
          5.895219,
          48.549051
        ]
      }
    },
    {
      "type": "Feature",
      "properties": {
        "name": "Maison Boulanger"
      },
      "geometry": {
        "type": "Point",
        "coordinates": [
          5.895039,
          48.549263
        ]
      }
    },
    {
      "type": "Feature",
      "properties": {
        "name": "Distributeur de baguettes"
      },
      "geometry": {
        "type": "Point",
        "coordinates": [
          5.908391,
          48.628055
        ]
      }
    },
    {
      "type": "Feature",
      "properties": {
        "name": "Ô Maribelle"
      },
      "geometry": {
        "type": "Point",
        "coordinates": [
          5.945078,
          48.583973
        ]
      }
    },
    {
      "type": "Feature",
      "properties": {
        "name": "Machine à Pain - Boulangerie aux Délices de Toul"
      },
      "geometry": {
        "type": "Point",
        "coordinates": [
          5.932799,
          48.738376
        ]
      }
    },
    {
      "type": "Feature",
      "properties": {
        "name": "boulangerie patisserie du Rosoir"
      },
      "geometry": {
        "type": "Point",
        "coordinates": [
          5.832623,
          48.733203
        ]
      }
    },
    {
      "type": "Feature",
      "properties": {
        "name": "Marangoz Cigdem"
      },
      "geometry": {
        "type": "Point",
        "coordinates": [
          5.895719,
          48.691193
        ]
      }
    },
    {
      "type": "Feature",
      "properties": {
        "name": "Marie Blachère Boulangerie Sandwicherie Tarterie"
      },
      "geometry": {
        "type": "Point",
        "coordinates": [
          5.902121,
          48.690871
        ]
      }
    },
    {
      "type": "Feature",
      "properties": {
        "name": "Boulangerie Karatas"
      },
      "geometry": {
        "type": "Point",
        "coordinates": [
          5.901721,
          48.690682
        ]
      }
    },
    {
      "type": "Feature",
      "properties": {
        "name": "Distributeur pain"
      },
      "geometry": {
        "type": "Point",
        "coordinates": [
          5.889158,
          48.669043
        ]
      }
    },
    {
      "type": "Feature",
      "properties": {
        "name": "Baraka'fé"
      },
      "geometry": {
        "type": "Point",
        "coordinates": [
          5.89032,
          48.673914
        ]
      }
    },
    {
      "type": "Feature",
      "properties": {
        "name": "Maison JM Martin (Place Ronde)"
      },
      "geometry": {
        "type": "Point",
        "coordinates": [
          5.889836,
          48.673878
        ]
      }
    },
    {
      "type": "Feature",
      "properties": {
        "name": "Vincent Sébastien"
      },
      "geometry": {
        "type": "Point",
        "coordinates": [
          5.890752,
          48.674055
        ]
      }
    },
    {
      "type": "Feature",
      "properties": {
        "name": "Bouteille Didier"
      },
      "geometry": {
        "type": "Point",
        "coordinates": [
          5.882317,
          48.670455
        ]
      }
    },
    {
      "type": "Feature",
      "properties": {
        "name": "Roscom"
      },
      "geometry": {
        "type": "Point",
        "coordinates": [
          5.889494,
          48.674332
        ]
      }
    },
    {
      "type": "Feature",
      "properties": {
        "name": "La Viennoise"
      },
      "geometry": {
        "type": "Point",
        "coordinates": [
          5.889494,
          48.674332
        ]
      }
    },
    {
      "type": "Feature",
      "properties": {
        "name": "Maison Schmitt"
      },
      "geometry": {
        "type": "Point",
        "coordinates": [
          5.889027,
          48.675261
        ]
      }
    },
    {
      "type": "Feature",
      "properties": {
        "name": "Boulangerie Vidvard"
      },
      "geometry": {
        "type": "Point",
        "coordinates": [
          5.892205,
          48.676374
        ]
      }
    },
    {
      "type": "Feature",
      "properties": {
        "name": "Le Pain du Progrès"
      },
      "geometry": {
        "type": "Point",
        "coordinates": [
          5.828987,
          48.625247
        ]
      }
    },
    {
      "type": "Feature",
      "properties": {
        "name": "Aux P’tits Choux"
      },
      "geometry": {
        "type": "Point",
        "coordinates": [
          5.84503,
          48.844136
        ]
      }
    },
    {
      "type": "Feature",
      "properties": {
        "name": "Cafe De Pont Neuf"
      },
      "geometry": {
        "type": "Point",
        "coordinates": [
          5.959862,
          48.695382
        ]
      }
    },
    {
      "type": "Feature",
      "properties": {
        "name": "Maison \"martin felix\""
      },
      "geometry": {
        "type": "Point",
        "coordinates": [
          5.959065,
          48.690853
        ]
      }
    },
    {
      "type": "Feature",
      "properties": {
        "name": "Boulangerie Pâtisserie E.Lalance Gondreville"
      },
      "geometry": {
        "type": "Point",
        "coordinates": [
          5.973513,
          48.690717
        ]
      }
    },
    {
      "type": "Feature",
      "properties": {
        "name": "Hervé"
      },
      "geometry": {
        "type": "Point",
        "coordinates": [
          5.865494,
          48.954589
        ]
      }
    },
    {
      "type": "Feature",
      "properties": {
        "name": "Boulangerie Mettavant David"
      },
      "geometry": {
        "type": "Point",
        "coordinates": [
          5.898187,
          49.047082
        ]
      }
    },
    {
      "type": "Feature",
      "properties": {
        "name": "Les Pâtisseries de Katy"
      },
      "geometry": {
        "type": "Point",
        "coordinates": [
          5.901489,
          49.046869
        ]
      }
    },
    {
      "type": "Feature",
      "properties": {
        "name": "Billiaux Pascal"
      },
      "geometry": {
        "type": "Point",
        "coordinates": [
          5.88473,
          49.097901
        ]
      }
    },
    {
      "type": "Feature",
      "properties": {
        "name": "Les desserts de Marie"
      },
      "geometry": {
        "type": "Point",
        "coordinates": [
          5.947241,
          49.092665
        ]
      }
    },
    {
      "type": "Feature",
      "properties": {
        "name": "Atelier du pain"
      },
      "geometry": {
        "type": "Point",
        "coordinates": [
          5.885189,
          49.171342
        ]
      }
    },
    {
      "type": "Feature",
      "properties": {
        "name": "Graines de Boulanger"
      },
      "geometry": {
        "type": "Point",
        "coordinates": [
          5.881663,
          49.17329
        ]
      }
    },
    {
      "type": "Feature",
      "properties": {
        "name": "Boulangerie Simon"
      },
      "geometry": {
        "type": "Point",
        "coordinates": [
          5.882062,
          49.161839
        ]
      }
    },
    {
      "type": "Feature",
      "properties": {
        "name": "The 3 Little Bakers"
      },
      "geometry": {
        "type": "Point",
        "coordinates": [
          5.885556,
          49.156944
        ]
      }
    },
    {
      "type": "Feature",
      "properties": {
        "name": "L'amoureux du pain"
      },
      "geometry": {
        "type": "Point",
        "coordinates": [
          5.875478,
          49.161455
        ]
      }
    },
    {
      "type": "Feature",
      "properties": {
        "name": "le fournil"
      },
      "geometry": {
        "type": "Point",
        "coordinates": [
          5.875478,
          49.161455
        ]
      }
    },
    {
      "type": "Feature",
      "properties": {
        "name": "Boulangerie Villain"
      },
      "geometry": {
        "type": "Point",
        "coordinates": [
          5.87884,
          49.158637
        ]
      }
    },
    {
      "type": "Feature",
      "properties": {
        "name": "Boulangerie Patisserie Chocolaterie Wisniewski Alain"
      },
      "geometry": {
        "type": "Point",
        "coordinates": [
          5.882663,
          49.156825
        ]
      }
    },
    {
      "type": "Feature",
      "properties": {
        "name": "Phyto Shop"
      },
      "geometry": {
        "type": "Point",
        "coordinates": [
          5.885097,
          49.155815
        ]
      }
    },
    {
      "type": "Feature",
      "properties": {
        "name": "Pop&Cake"
      },
      "geometry": {
        "type": "Point",
        "coordinates": [
          5.880317,
          49.157189
        ]
      }
    },
    {
      "type": "Feature",
      "properties": {
        "name": "Pop&Cake"
      },
      "geometry": {
        "type": "Point",
        "coordinates": [
          5.880317,
          49.157189
        ]
      }
    },
    {
      "type": "Feature",
      "properties": {
        "name": "Au Petit Prince"
      },
      "geometry": {
        "type": "Point",
        "coordinates": [
          5.916073,
          49.170145
        ]
      }
    },
    {
      "type": "Feature",
      "properties": {
        "name": "Au Moulin de Valérie Tucquegnieux"
      },
      "geometry": {
        "type": "Point",
        "coordinates": [
          5.893165,
          49.308503
        ]
      }
    },
    {
      "type": "Feature",
      "properties": {
        "name": "Becq Eric"
      },
      "geometry": {
        "type": "Point",
        "coordinates": [
          5.927202,
          49.324789
        ]
      }
    },
    {
      "type": "Feature",
      "properties": {
        "name": "Maison HAUPERT La Mie Du Terroir"
      },
      "geometry": {
        "type": "Point",
        "coordinates": [
          5.929742,
          49.32441
        ]
      }
    },
    {
      "type": "Feature",
      "properties": {
        "name": "Becq Eric"
      },
      "geometry": {
        "type": "Point",
        "coordinates": [
          5.894424,
          49.283807
        ]
      }
    },
    {
      "type": "Feature",
      "properties": {
        "name": "Le loup rose"
      },
      "geometry": {
        "type": "Point",
        "coordinates": [
          5.837821,
          49.144588
        ]
      }
    },
    {
      "type": "Feature",
      "properties": {
        "name": "Bichette Pâtisserie"
      },
      "geometry": {
        "type": "Point",
        "coordinates": [
          5.858145,
          49.243971
        ]
      }
    },
    {
      "type": "Feature",
      "properties": {
        "name": "Gillant Hervé"
      },
      "geometry": {
        "type": "Point",
        "coordinates": [
          5.933995,
          49.247387
        ]
      }
    },
    {
      "type": "Feature",
      "properties": {
        "name": "Les Gourmandises d’Ellen"
      },
      "geometry": {
        "type": "Point",
        "coordinates": [
          5.934566,
          49.246805
        ]
      }
    },
    {
      "type": "Feature",
      "properties": {
        "name": "Les Beignets d'Aurélie"
      },
      "geometry": {
        "type": "Point",
        "coordinates": [
          5.935756,
          49.245859
        ]
      }
    },
    {
      "type": "Feature",
      "properties": {
        "name": "Cafe Bar De L Union"
      },
      "geometry": {
        "type": "Point",
        "coordinates": [
          5.939788,
          49.248344
        ]
      }
    },
    {
      "type": "Feature",
      "properties": {
        "name": "Pâtisserie Karrenbauer"
      },
      "geometry": {
        "type": "Point",
        "coordinates": [
          5.940731,
          49.250127
        ]
      }
    },
    {
      "type": "Feature",
      "properties": {
        "name": "Saveurs Et Gourmandises"
      },
      "geometry": {
        "type": "Point",
        "coordinates": [
          5.897899,
          49.370202
        ]
      }
    },
    {
      "type": "Feature",
      "properties": {
        "name": "Saveurs et Gourmandises"
      },
      "geometry": {
        "type": "Point",
        "coordinates": [
          5.894178,
          49.36927
        ]
      }
    },
    {
      "type": "Feature",
      "properties": {
        "name": "Boulangerie - Pâtisserie Michelot Luc"
      },
      "geometry": {
        "type": "Point",
        "coordinates": [
          5.894178,
          49.36927
        ]
      }
    },
    {
      "type": "Feature",
      "properties": {
        "name": "Boulangerie Duhr"
      },
      "geometry": {
        "type": "Point",
        "coordinates": [
          5.951205,
          49.380277
        ]
      }
    },
    {
      "type": "Feature",
      "properties": {
        "name": "Artisan Banette Boulanger"
      },
      "geometry": {
        "type": "Point",
        "coordinates": [
          5.952516,
          49.379425
        ]
      }
    },
    {
      "type": "Feature",
      "properties": {
        "name": "Le Blé Dore Par Soraya"
      },
      "geometry": {
        "type": "Point",
        "coordinates": [
          5.95259,
          49.379339
        ]
      }
    },
    {
      "type": "Feature",
      "properties": {
        "name": "L’atelier Gourmand de Jess"
      },
      "geometry": {
        "type": "Point",
        "coordinates": [
          5.952796,
          49.377031
        ]
      }
    },
    {
      "type": "Feature",
      "properties": {
        "name": "Boulangerie Patis"
      },
      "geometry": {
        "type": "Point",
        "coordinates": [
          5.905518,
          49.47296
        ]
      }
    },
    {
      "type": "Feature",
      "properties": {
        "name": "Boulangerie Pâtisserie A.L. Cochelard"
      },
      "geometry": {
        "type": "Point",
        "coordinates": [
          5.910024,
          49.47252
        ]
      }
    },
    {
      "type": "Feature",
      "properties": {
        "name": "House Ponzoni Cantebonne"
      },
      "geometry": {
        "type": "Point",
        "coordinates": [
          5.930671,
          49.46008
        ]
      }
    },
    {
      "type": "Feature",
      "properties": {
        "name": "Li & Ju Boulangerie"
      },
      "geometry": {
        "type": "Point",
        "coordinates": [
          5.927618,
          49.469824
        ]
      }
    },
    {
      "type": "Feature",
      "properties": {
        "name": "Li e ju"
      },
      "geometry": {
        "type": "Point",
        "coordinates": [
          5.930248,
          49.468365
        ]
      }
    },
    {
      "type": "Feature",
      "properties": {
        "name": "Maison Ponzoni"
      },
      "geometry": {
        "type": "Point",
        "coordinates": [
          5.930359,
          49.468837
        ]
      }
    },
    {
      "type": "Feature",
      "properties": {
        "name": "Café Au Point Central"
      },
      "geometry": {
        "type": "Point",
        "coordinates": [
          5.930169,
          49.469233
        ]
      }
    },
    {
      "type": "Feature",
      "properties": {
        "name": "Martin Jean-Louis"
      },
      "geometry": {
        "type": "Point",
        "coordinates": [
          5.930013,
          49.469777
        ]
      }
    },
    {
      "type": "Feature",
      "properties": {
        "name": "L'O à la bouche - Votre Boulangerie - Pâtisserie"
      },
      "geometry": {
        "type": "Point",
        "coordinates": [
          5.93114,
          49.469996
        ]
      }
    },
    {
      "type": "Feature",
      "properties": {
        "name": "Angelisa Salon De Thé"
      },
      "geometry": {
        "type": "Point",
        "coordinates": [
          5.931789,
          49.469157
        ]
      }
    },
    {
      "type": "Feature",
      "properties": {
        "name": "Guilpain Au bon Pain"
      },
      "geometry": {
        "type": "Point",
        "coordinates": [
          5.933371,
          49.212101
        ]
      }
    },
    {
      "type": "Feature",
      "properties": {
        "name": "Janiszewski Laurent"
      },
      "geometry": {
        "type": "Point",
        "coordinates": [
          5.97536,
          49.211562
        ]
      }
    },
    {
      "type": "Feature",
      "properties": {
        "name": "Hémisphère Sucré"
      },
      "geometry": {
        "type": "Point",
        "coordinates": [
          5.97205,
          49.191427
        ]
      }
    },
    {
      "type": "Feature",
      "properties": {
        "name": "Marie Blachère Boulangerie Sandwicherie Tarterie"
      },
      "geometry": {
        "type": "Point",
        "coordinates": [
          5.945224,
          49.254116
        ]
      }
    },
    {
      "type": "Feature",
      "properties": {
        "name": "H. Baker Gillant"
      },
      "geometry": {
        "type": "Point",
        "coordinates": [
          5.945402,
          49.252815
        ]
      }
    },
    {
      "type": "Feature",
      "properties": {
        "name": "Boulangerie Chez Victor & Rémy Doncourt"
      },
      "geometry": {
        "type": "Point",
        "coordinates": [
          5.92898,
          49.144932
        ]
      }
    },
    {
      "type": "Feature",
      "properties": {
        "name": "Boulangerie Jessica Et Romain Behem"
      },
      "geometry": {
        "type": "Point",
        "coordinates": [
          5.862362,
          49.496624
        ]
      }
    },
    {
      "type": "Feature",
      "properties": {
        "name": "Point Chaud Boulangerie Patisserie Vuillemard Nicola"
      },
      "geometry": {
        "type": "Point",
        "coordinates": [
          5.825388,
          49.472553
        ]
      }
    },
    {
      "type": "Feature",
      "properties": {
        "name": "Maison Ponzoni"
      },
      "geometry": {
        "type": "Point",
        "coordinates": [
          5.872941,
          49.492538
        ]
      }
    },
    {
      "type": "Feature",
      "properties": {
        "name": "Boulangerie pâtisserie"
      },
      "geometry": {
        "type": "Point",
        "coordinates": [
          5.94277,
          49.417241
        ]
      }
    },
    {
      "type": "Feature",
      "properties": {
        "name": "Creamy Creations AC"
      },
      "geometry": {
        "type": "Point",
        "coordinates": [
          5.939973,
          49.417342
        ]
      }
    },
    {
      "type": "Feature",
      "properties": {
        "name": "L’ÉPI D’OR"
      },
      "geometry": {
        "type": "Point",
        "coordinates": [
          5.930484,
          49.429183
        ]
      }
    },
    {
      "type": "Feature",
      "properties": {
        "name": "Café Belval (Marco dos leitões)"
      },
      "geometry": {
        "type": "Point",
        "coordinates": [
          5.95707,
          49.49436
        ]
      }
    },
    {
      "type": "Feature",
      "properties": {
        "name": "Fred's - Belgian Waffles & Ice Cream (Belval)"
      },
      "geometry": {
        "type": "Point",
        "coordinates": [
          5.946234,
          49.500706
        ]
      }
    },
    {
      "type": "Feature",
      "properties": {
        "name": "Fischer"
      },
      "geometry": {
        "type": "Point",
        "coordinates": [
          5.944674,
          49.501033
        ]
      }
    },
    {
      "type": "Feature",
      "properties": {
        "name": "LUX BOBA"
      },
      "geometry": {
        "type": "Point",
        "coordinates": [
          5.944674,
          49.501033
        ]
      }
    },
    {
      "type": "Feature",
      "properties": {
        "name": "Yo by Yogurtlandia"
      },
      "geometry": {
        "type": "Point",
        "coordinates": [
          5.944674,
          49.501033
        ]
      }
    },
    {
      "type": "Feature",
      "properties": {
        "name": "Blacknotes"
      },
      "geometry": {
        "type": "Point",
        "coordinates": [
          5.945423,
          49.501214
        ]
      }
    },
    {
      "type": "Feature",
      "properties": {
        "name": "Athena Cafe S.a R.l."
      },
      "geometry": {
        "type": "Point",
        "coordinates": [
          5.945198,
          49.501648
        ]
      }
    },
    {
      "type": "Feature",
      "properties": {
        "name": "Paul (Le café)"
      },
      "geometry": {
        "type": "Point",
        "coordinates": [
          5.947838,
          49.502526
        ]
      }
    },
    {
      "type": "Feature",
      "properties": {
        "name": "A-tea"
      },
      "geometry": {
        "type": "Point",
        "coordinates": [
          5.941433,
          49.50182
        ]
      }
    },
    {
      "type": "Feature",
      "properties": {
        "name": "Atea"
      },
      "geometry": {
        "type": "Point",
        "coordinates": [
          5.941982,
          49.502346
        ]
      }
    },
    {
      "type": "Feature",
      "properties": {
        "name": "Café du Savoir"
      },
      "geometry": {
        "type": "Point",
        "coordinates": [
          5.949296,
          49.504097
        ]
      }
    },
    {
      "type": "Feature",
      "properties": {
        "name": "Ruposhi Bangla S.a R.l."
      },
      "geometry": {
        "type": "Point",
        "coordinates": [
          5.891198,
          49.528488
        ]
      }
    },
    {
      "type": "Feature",
      "properties": {
        "name": "Café Pombalito"
      },
      "geometry": {
        "type": "Point",
        "coordinates": [
          5.890967,
          49.52766
        ]
      }
    },
    {
      "type": "Feature",
      "properties": {
        "name": "Café Restaurante Cinema"
      },
      "geometry": {
        "type": "Point",
        "coordinates": [
          5.890968,
          49.526975
        ]
      }
    },
    {
      "type": "Feature",
      "properties": {
        "name": "Roude Léiw"
      },
      "geometry": {
        "type": "Point",
        "coordinates": [
          5.890392,
          49.526343
        ]
      }
    },
    {
      "type": "Feature",
      "properties": {
        "name": "Café Lamego"
      },
      "geometry": {
        "type": "Point",
        "coordinates": [
          5.889613,
          49.5257
        ]
      }
    },
    {
      "type": "Feature",
      "properties": {
        "name": "Café Beim Spidol"
      },
      "geometry": {
        "type": "Point",
        "coordinates": [
          5.889742,
          49.534115
        ]
      }
    },
    {
      "type": "Feature",
      "properties": {
        "name": "Café de la Poste"
      },
      "geometry": {
        "type": "Point",
        "coordinates": [
          5.889841,
          49.525273
        ]
      }
    },
    {
      "type": "Feature",
      "properties": {
        "name": "Café Bei der Giedel Bousson Sàrl"
      },
      "geometry": {
        "type": "Point",
        "coordinates": [
          5.89143,
          49.53506
        ]
      }
    },
    {
      "type": "Feature",
      "properties": {
        "name": "Fischer"
      },
      "geometry": {
        "type": "Point",
        "coordinates": [
          5.890933,
          49.535191
        ]
      }
    },
    {
      "type": "Feature",
      "properties": {
        "name": "Café Beim Fisschen"
      },
      "geometry": {
        "type": "Point",
        "coordinates": [
          5.892791,
          49.535627
        ]
      }
    },
    {
      "type": "Feature",
      "properties": {
        "name": "Pâtisserie de Fanny"
      },
      "geometry": {
        "type": "Point",
        "coordinates": [
          5.977272,
          49.347907
        ]
      }
    },
    {
      "type": "Feature",
      "properties": {
        "name": "Boulangerie-Pâtisserie Brisbois Sàrl"
      },
      "geometry": {
        "type": "Point",
        "coordinates": [
          5.873855,
          49.597533
        ]
      }
    },
    {
      "type": "Feature",
      "properties": {
        "name": "Café Um Schoulkleppelchen"
      },
      "geometry": {
        "type": "Point",
        "coordinates": [
          5.906863,
          49.567915
        ]
      }
    },
    {
      "type": "Feature",
      "properties": {
        "name": "Café Lenger Stuff Sàrl"
      },
      "geometry": {
        "type": "Point",
        "coordinates": [
          5.886135,
          49.565443
        ]
      }
    },
    {
      "type": "Feature",
      "properties": {
        "name": "Café Mousel's Béierstuff"
      },
      "geometry": {
        "type": "Point",
        "coordinates": [
          5.910139,
          49.566587
        ]
      }
    },
    {
      "type": "Feature",
      "properties": {
        "name": "Fischer"
      },
      "geometry": {
        "type": "Point",
        "coordinates": [
          5.9087,
          49.566167
        ]
      }
    },
    {
      "type": "Feature",
      "properties": {
        "name": "Käerjhenger Stuff"
      },
      "geometry": {
        "type": "Point",
        "coordinates": [
          5.909609,
          49.566311
        ]
      }
    },
    {
      "type": "Feature",
      "properties": {
        "name": "Café des Sports"
      },
      "geometry": {
        "type": "Point",
        "coordinates": [
          5.877738,
          49.684585
        ]
      }
    },
    {
      "type": "Feature",
      "properties": {
        "name": "Cafe Art'Hem"
      },
      "geometry": {
        "type": "Point",
        "coordinates": [
          5.903707,
          49.658853
        ]
      }
    },
    {
      "type": "Feature",
      "properties": {
        "name": "Boulangerie-Pâtisserie Brisbois Sàrl"
      },
      "geometry": {
        "type": "Point",
        "coordinates": [
          5.915368,
          49.686189
        ]
      }
    },
    {
      "type": "Feature",
      "properties": {
        "name": "Boulangerie-Pâtisserie Jos&Jean-Marie"
      },
      "geometry": {
        "type": "Point",
        "coordinates": [
          5.912398,
          49.659067
        ]
      }
    },
    {
      "type": "Feature",
      "properties": {
        "name": "Café Duerfkrou Habscht"
      },
      "geometry": {
        "type": "Point",
        "coordinates": [
          5.913363,
          49.688301
        ]
      }
    },
    {
      "type": "Feature",
      "properties": {
        "name": "Tugga"
      },
      "geometry": {
        "type": "Point",
        "coordinates": [
          5.913363,
          49.688301
        ]
      }
    },
    {
      "type": "Feature",
      "properties": {
        "name": "Pause Art - Ceramique Cafe"
      },
      "geometry": {
        "type": "Point",
        "coordinates": [
          5.91471,
          49.65716
        ]
      }
    },
    {
      "type": "Feature",
      "properties": {
        "name": "Fischer"
      },
      "geometry": {
        "type": "Point",
        "coordinates": [
          5.91922,
          49.65845
        ]
      }
    },
    {
      "type": "Feature",
      "properties": {
        "name": "Café Chez Chantou"
      },
      "geometry": {
        "type": "Point",
        "coordinates": [
          5.836187,
          49.562877
        ]
      }
    },
    {
      "type": "Feature",
      "properties": {
        "name": "L ATELIER PONSAR"
      },
      "geometry": {
        "type": "Point",
        "coordinates": [
          5.833582,
          49.562865
        ]
      }
    },
    {
      "type": "Feature",
      "properties": {
        "name": "Au Chez Nous"
      },
      "geometry": {
        "type": "Point",
        "coordinates": [
          5.82997,
          49.563194
        ]
      }
    },
    {
      "type": "Feature",
      "properties": {
        "name": "Boulangerie - Pâtisserie Schweisthal"
      },
      "geometry": {
        "type": "Point",
        "coordinates": [
          5.843393,
          49.559771
        ]
      }
    },
    {
      "type": "Feature",
      "properties": {
        "name": "Live Café"
      },
      "geometry": {
        "type": "Point",
        "coordinates": [
          5.837273,
          49.558254
        ]
      }
    },
    {
      "type": "Feature",
      "properties": {
        "name": "Cafè Les 3 Frontières"
      },
      "geometry": {
        "type": "Point",
        "coordinates": [
          5.837498,
          49.55725
        ]
      }
    },
    {
      "type": "Feature",
      "properties": {
        "name": "Café Theaterstiffchen"
      },
      "geometry": {
        "type": "Point",
        "coordinates": [
          5.922536,
          49.5091
        ]
      }
    },
    {
      "type": "Feature",
      "properties": {
        "name": "Aal Bieles Café"
      },
      "geometry": {
        "type": "Point",
        "coordinates": [
          5.922952,
          49.508036
        ]
      }
    },
    {
      "type": "Feature",
      "properties": {
        "name": "Boulangerie BERTO"
      },
      "geometry": {
        "type": "Point",
        "coordinates": [
          5.931135,
          49.511052
        ]
      }
    },
    {
      "type": "Feature",
      "properties": {
        "name": "Pause Café"
      },
      "geometry": {
        "type": "Point",
        "coordinates": [
          5.921215,
          49.522401
        ]
      }
    },
    {
      "type": "Feature",
      "properties": {
        "name": "Boulangerie-Pâtisserie Berto"
      },
      "geometry": {
        "type": "Point",
        "coordinates": [
          5.908188,
          49.520952
        ]
      }
    },
    {
      "type": "Feature",
      "properties": {
        "name": "Cafe Do-Re-Mi / chez Valère"
      },
      "geometry": {
        "type": "Point",
        "coordinates": [
          5.833383,
          49.632956
        ]
      }
    },
    {
      "type": "Feature",
      "properties": {
        "name": "La Bordure - Café Cycliste"
      },
      "geometry": {
        "type": "Point",
        "coordinates": [
          5.826198,
          49.64666
        ]
      }
    },
    {
      "type": "Feature",
      "properties": {
        "name": "Marie Blachère Boulangerie Sandwicherie Tarterie"
      },
      "geometry": {
        "type": "Point",
        "coordinates": [
          5.809701,
          49.626025
        ]
      }
    },
    {
      "type": "Feature",
      "properties": {
        "name": "Les Tartes Françoise Arlon"
      },
      "geometry": {
        "type": "Point",
        "coordinates": [
          5.820586,
          49.656624
        ]
      }
    },
    {
      "type": "Feature",
      "properties": {
        "name": "Cafe du Wolberg sprl"
      },
      "geometry": {
        "type": "Point",
        "coordinates": [
          5.855743,
          49.657836
        ]
      }
    },
    {
      "type": "Feature",
      "properties": {
        "name": "Realé Gelateria ®"
      },
      "geometry": {
        "type": "Point",
        "coordinates": [
          5.798254,
          49.545212
        ]
      }
    },
    {
      "type": "Feature",
      "properties": {
        "name": "Cafe Chez Sim"
      },
      "geometry": {
        "type": "Point",
        "coordinates": [
          5.81778,
          49.542764
        ]
      }
    },
    {
      "type": "Feature",
      "properties": {
        "name": "Distributeur de baguette 24h/24"
      },
      "geometry": {
        "type": "Point",
        "coordinates": [
          5.988263,
          49.510537
        ]
      }
    },
    {
      "type": "Feature",
      "properties": {
        "name": "Da Costa Elodie"
      },
      "geometry": {
        "type": "Point",
        "coordinates": [
          5.981187,
          49.503465
        ]
      }
    },
    {
      "type": "Feature",
      "properties": {
        "name": "Boulangerie - Pâtisserie - Confiserie Trombini Gilles"
      },
      "geometry": {
        "type": "Point",
        "coordinates": [
          5.97043,
          49.5031
        ]
      }
    },
    {
      "type": "Feature",
      "properties": {
        "name": "Cafe Roude Leiw"
      },
      "geometry": {
        "type": "Point",
        "coordinates": [
          5.984166,
          49.504317
        ]
      }
    },
    {
      "type": "Feature",
      "properties": {
        "name": "Boulangerie-Pâtisserie Jos&Jean-Marie"
      },
      "geometry": {
        "type": "Point",
        "coordinates": [
          5.979482,
          49.502338
        ]
      }
    },
    {
      "type": "Feature",
      "properties": {
        "name": "Bäckerei Vum Séi Sàrl Sàrl"
      },
      "geometry": {
        "type": "Point",
        "coordinates": [
          5.979482,
          49.502338
        ]
      }
    },
    {
      "type": "Feature",
      "properties": {
        "name": "Simon Jean-Claude"
      },
      "geometry": {
        "type": "Point",
        "coordinates": [
          5.979482,
          49.502338
        ]
      }
    },
    {
      "type": "Feature",
      "properties": {
        "name": "Cafe"
      },
      "geometry": {
        "type": "Point",
        "coordinates": [
          5.988496,
          49.505947
        ]
      }
    },
    {
      "type": "Feature",
      "properties": {
        "name": "Fischer"
      },
      "geometry": {
        "type": "Point",
        "coordinates": [
          5.841974,
          49.728856
        ]
      }
    },
    {
      "type": "Feature",
      "properties": {
        "name": "Nath's Cakes"
      },
      "geometry": {
        "type": "Point",
        "coordinates": [
          5.810523,
          49.726524
        ]
      }
    },
    {
      "type": "Feature",
      "properties": {
        "name": "Marguerite et Armand"
      },
      "geometry": {
        "type": "Point",
        "coordinates": [
          5.819296,
          49.688164
        ]
      }
    },
    {
      "type": "Feature",
      "properties": {
        "name": "Caffe Roma"
      },
      "geometry": {
        "type": "Point",
        "coordinates": [
          5.79687,
          49.543341
        ]
      }
    },
    {
      "type": "Feature",
      "properties": {
        "name": "Columbus Café & Co"
      },
      "geometry": {
        "type": "Point",
        "coordinates": [
          5.797282,
          49.543912
        ]
      }
    },
    {
      "type": "Feature",
      "properties": {
        "name": "Fischer"
      },
      "geometry": {
        "type": "Point",
        "coordinates": [
          5.797282,
          49.543912
        ]
      }
    },
    {
      "type": "Feature",
      "properties": {
        "name": "Maison Vuillemard Boulangerie Patisserie Artisanale"
      },
      "geometry": {
        "type": "Point",
        "coordinates": [
          5.802769,
          49.53578
        ]
      }
    },
    {
      "type": "Feature",
      "properties": {
        "name": "Café Du Village"
      },
      "geometry": {
        "type": "Point",
        "coordinates": [
          5.794688,
          49.560584
        ]
      }
    },
    {
      "type": "Feature",
      "properties": {
        "name": "Café-Restaurant Ribatejo"
      },
      "geometry": {
        "type": "Point",
        "coordinates": [
          5.955186,
          49.647822
        ]
      }
    },
    {
      "type": "Feature",
      "properties": {
        "name": "Coffee & Snacks Aire de Capellen"
      },
      "geometry": {
        "type": "Point",
        "coordinates": [
          5.971135,
          49.634657
        ]
      }
    },
    {
      "type": "Feature",
      "properties": {
        "name": "Café Oliveirense"
      },
      "geometry": {
        "type": "Point",
        "coordinates": [
          5.98766,
          49.503576
        ]
      }
    },
    {
      "type": "Feature",
      "properties": {
        "name": "Boulangerie Molitor"
      },
      "geometry": {
        "type": "Point",
        "coordinates": [
          5.915872,
          49.644859
        ]
      }
    },
    {
      "type": "Feature",
      "properties": {
        "name": "Escher Baumhauscafé"
      },
      "geometry": {
        "type": "Point",
        "coordinates": [
          5.984738,
          49.483298
        ]
      }
    },
    {
      "type": "Feature",
      "properties": {
        "name": "DANISA CAFE S.A R.L."
      },
      "geometry": {
        "type": "Point",
        "coordinates": [
          5.977914,
          49.486067
        ]
      }
    },
    {
      "type": "Feature",
      "properties": {
        "name": "Aux Delices"
      },
      "geometry": {
        "type": "Point",
        "coordinates": [
          5.958261,
          49.475699
        ]
      }
    },
    {
      "type": "Feature",
      "properties": {
        "name": "Wechtler"
      },
      "geometry": {
        "type": "Point",
        "coordinates": [
          5.958063,
          49.475716
        ]
      }
    },
    {
      "type": "Feature",
      "properties": {
        "name": "Café Fortuna - Rodrigues Celeste"
      },
      "geometry": {
        "type": "Point",
        "coordinates": [
          5.978039,
          49.487914
        ]
      }
    },
    {
      "type": "Feature",
      "properties": {
        "name": "Le café des voyageurs"
      },
      "geometry": {
        "type": "Point",
        "coordinates": [
          5.957009,
          49.471486
        ]
      }
    },
    {
      "type": "Feature",
      "properties": {
        "name": "Beim Bäcker Jos"
      },
      "geometry": {
        "type": "Point",
        "coordinates": [
          5.888075,
          49.729485
        ]
      }
    },
    {
      "type": "Feature",
      "properties": {
        "name": "Café des Sports"
      },
      "geometry": {
        "type": "Point",
        "coordinates": [
          5.853465,
          49.763119
        ]
      }
    },
    {
      "type": "Feature",
      "properties": {
        "name": "Café Chez Lisa"
      },
      "geometry": {
        "type": "Point",
        "coordinates": [
          5.925236,
          49.775692
        ]
      }
    },
    {
      "type": "Feature",
      "properties": {
        "name": "Café am Duerf"
      },
      "geometry": {
        "type": "Point",
        "coordinates": [
          5.868326,
          49.807301
        ]
      }
    },
    {
      "type": "Feature",
      "properties": {
        "name": "Bäckerei Vum Séi Sàrl Sàrl"
      },
      "geometry": {
        "type": "Point",
        "coordinates": [
          5.849244,
          49.829936
        ]
      }
    },
    {
      "type": "Feature",
      "properties": {
        "name": "Boulangerie-Pâtisserie Jos&Jean-Marie"
      },
      "geometry": {
        "type": "Point",
        "coordinates": [
          5.849244,
          49.829936
        ]
      }
    },
    {
      "type": "Feature",
      "properties": {
        "name": "Boulangerie-Pâtisserie Jos&Jean-Marie"
      },
      "geometry": {
        "type": "Point",
        "coordinates": [
          5.938639,
          49.799033
        ]
      }
    },
    {
      "type": "Feature",
      "properties": {
        "name": "Café des Rochers Sàrl/De Reiskocher"
      },
      "geometry": {
        "type": "Point",
        "coordinates": [
          5.935038,
          49.910297
        ]
      }
    },
    {
      "type": "Feature",
      "properties": {
        "name": "Schmaach ëm de Séi a méi"
      },
      "geometry": {
        "type": "Point",
        "coordinates": [
          5.935387,
          49.910532
        ]
      }
    },
    {
      "type": "Feature",
      "properties": {
        "name": "High Chapparal Café"
      },
      "geometry": {
        "type": "Point",
        "coordinates": [
          5.962266,
          49.905447
        ]
      }
    },
    {
      "type": "Feature",
      "properties": {
        "name": "Crousti'licious - Gaëlle Marot"
      },
      "geometry": {
        "type": "Point",
        "coordinates": [
          5.816922,
          49.588614
        ]
      }
    },
    {
      "type": "Feature",
      "properties": {
        "name": "Back to the pipeline"
      },
      "geometry": {
        "type": "Point",
        "coordinates": [
          5.81533,
          49.591858
        ]
      }
    },
    {
      "type": "Feature",
      "properties": {
        "name": "Bitaine"
      },
      "geometry": {
        "type": "Point",
        "coordinates": [
          5.816147,
          49.592568
        ]
      }
    },
    {
      "type": "Feature",
      "properties": {
        "name": "Fred's Belgian waffles & ice cream"
      },
      "geometry": {
        "type": "Point",
        "coordinates": [
          5.857762,
          49.962748
        ]
      }
    },
    {
      "type": "Feature",
      "properties": {
        "name": "Fischer"
      },
      "geometry": {
        "type": "Point",
        "coordinates": [
          5.857692,
          49.962712
        ]
      }
    },
    {
      "type": "Feature",
      "properties": {
        "name": "Cafe de la place"
      },
      "geometry": {
        "type": "Point",
        "coordinates": [
          5.930483,
          49.968903
        ]
      }
    },
    {
      "type": "Feature",
      "properties": {
        "name": "Café Poteau"
      },
      "geometry": {
        "type": "Point",
        "coordinates": [
          5.809028,
          49.908263
        ]
      }
    },
    {
      "type": "Feature",
      "properties": {
        "name": "Rollenger Weiheren"
      },
      "geometry": {
        "type": "Point",
        "coordinates": [
          5.864138,
          49.546012
        ]
      }
    },
    {
      "type": "Feature",
      "properties": {
        "name": "Café Porte de Lamadelaine"
      },
      "geometry": {
        "type": "Point",
        "coordinates": [
          5.862031,
          49.553665
        ]
      }
    },
    {
      "type": "Feature",
      "properties": {
        "name": "luxcompanysarl"
      },
      "geometry": {
        "type": "Point",
        "coordinates": [
          5.855471,
          49.54454
        ]
      }
    },
    {
      "type": "Feature",
      "properties": {
        "name": "Boulangerie Molitor Sàrl"
      },
      "geometry": {
        "type": "Point",
        "coordinates": [
          5.85392,
          49.549416
        ]
      }
    },
    {
      "type": "Feature",
      "properties": {
        "name": "Café Miami"
      },
      "geometry": {
        "type": "Point",
        "coordinates": [
          5.87376,
          49.555794
        ]
      }
    },
    {
      "type": "Feature",
      "properties": {
        "name": "BAKES MANUEL"
      },
      "geometry": {
        "type": "Point",
        "coordinates": [
          5.877023,
          49.554275
        ]
      }
    },
    {
      "type": "Feature",
      "properties": {
        "name": "Café Tomahawk"
      },
      "geometry": {
        "type": "Point",
        "coordinates": [
          5.875166,
          49.555802
        ]
      }
    },
    {
      "type": "Feature",
      "properties": {
        "name": "Café Schagalu Sàrl"
      },
      "geometry": {
        "type": "Point",
        "coordinates": [
          5.87578,
          49.555902
        ]
      }
    },
    {
      "type": "Feature",
      "properties": {
        "name": "Brasserie-Restaurant New Métropole"
      },
      "geometry": {
        "type": "Point",
        "coordinates": [
          5.876845,
          49.556255
        ]
      }
    },
    {
      "type": "Feature",
      "properties": {
        "name": "Chez Joséphine de Cherain"
      },
      "geometry": {
        "type": "Point",
        "coordinates": [
          5.864135,
          50.180701
        ]
      }
    },
    {
      "type": "Feature",
      "properties": {
        "name": "Plaisirs Gourmands"
      },
      "geometry": {
        "type": "Point",
        "coordinates": [
          5.863539,
          50.180239
        ]
      }
    },
    {
      "type": "Feature",
      "properties": {
        "name": "Boulangerie-Patisserie. Alimentation générale"
      },
      "geometry": {
        "type": "Point",
        "coordinates": [
          5.863539,
          50.180239
        ]
      }
    },
    {
      "type": "Feature",
      "properties": {
        "name": "L'Epicure"
      },
      "geometry": {
        "type": "Point",
        "coordinates": [
          5.952037,
          50.191757
        ]
      }
    },
    {
      "type": "Feature",
      "properties": {
        "name": "A Bon Vi Pan"
      },
      "geometry": {
        "type": "Point",
        "coordinates": [
          5.913702,
          50.216273
        ]
      }
    },
    {
      "type": "Feature",
      "properties": {
        "name": "Café Halt"
      },
      "geometry": {
        "type": "Point",
        "coordinates": [
          5.959052,
          49.985778
        ]
      }
    },
    {
      "type": "Feature",
      "properties": {
        "name": "Phillipart bakkerij houffalize"
      },
      "geometry": {
        "type": "Point",
        "coordinates": [
          5.816137,
          50.159862
        ]
      }
    },
    {
      "type": "Feature",
      "properties": {
        "name": "Pâtisserie Marc Scheer Sàrl"
      },
      "geometry": {
        "type": "Point",
        "coordinates": [
          5.878409,
          49.556803
        ]
      }
    },
    {
      "type": "Feature",
      "properties": {
        "name": "Park Kaffee"
      },
      "geometry": {
        "type": "Point",
        "coordinates": [
          5.878058,
          49.556969
        ]
      }
    },
    {
      "type": "Feature",
      "properties": {
        "name": "Pavillon K Pétange"
      },
      "geometry": {
        "type": "Point",
        "coordinates": [
          5.877819,
          49.556774
        ]
      }
    },
    {
      "type": "Feature",
      "properties": {
        "name": "Aal Peiteng"
      },
      "geometry": {
        "type": "Point",
        "coordinates": [
          5.879001,
          49.556869
        ]
      }
    },
    {
      "type": "Feature",
      "properties": {
        "name": "Brasserie Hôtel de Ville"
      },
      "geometry": {
        "type": "Point",
        "coordinates": [
          5.876862,
          49.556568
        ]
      }
    },
    {
      "type": "Feature",
      "properties": {
        "name": "Café Am Home"
      },
      "geometry": {
        "type": "Point",
        "coordinates": [
          5.873744,
          49.55896
        ]
      }
    },
    {
      "type": "Feature",
      "properties": {
        "name": "Café New Slice"
      },
      "geometry": {
        "type": "Point",
        "coordinates": [
          5.874086,
          49.561016
        ]
      }
    },
    {
      "type": "Feature",
      "properties": {
        "name": "Alphonse Bock"
      },
      "geometry": {
        "type": "Point",
        "coordinates": [
          5.921856,
          50.226524
        ]
      }
    },
    {
      "type": "Feature",
      "properties": {
        "name": "Au Pré Fleuri"
      },
      "geometry": {
        "type": "Point",
        "coordinates": [
          5.911541,
          50.280093
        ]
      }
    },
    {
      "type": "Feature",
      "properties": {
        "name": "Willemet Dimitri"
      },
      "geometry": {
        "type": "Point",
        "coordinates": [
          5.91161,
          50.280133
        ]
      }
    },
    {
      "type": "Feature",
      "properties": {
        "name": "Boulangerie Chez Coco"
      },
      "geometry": {
        "type": "Point",
        "coordinates": [
          5.945176,
          50.239809
        ]
      }
    },
    {
      "type": "Feature",
      "properties": {
        "name": "Les folies de Laeti"
      },
      "geometry": {
        "type": "Point",
        "coordinates": [
          5.845943,
          50.269598
        ]
      }
    },
    {
      "type": "Feature",
      "properties": {
        "name": "Chez Nous"
      },
      "geometry": {
        "type": "Point",
        "coordinates": [
          5.914293,
          50.283273
        ]
      }
    },
    {
      "type": "Feature",
      "properties": {
        "name": "Café du Luxembourg - \"Chez Franck\""
      },
      "geometry": {
        "type": "Point",
        "coordinates": [
          5.954092,
          50.190166
        ]
      }
    },
    {
      "type": "Feature",
      "properties": {
        "name": "Clees"
      },
      "geometry": {
        "type": "Point",
        "coordinates": [
          5.977202,
          50.156439
        ]
      }
    },
    {
      "type": "Feature",
      "properties": {
        "name": "Pains & Tradition Sàrl"
      },
      "geometry": {
        "type": "Point",
        "coordinates": [
          5.935132,
          49.567524
        ]
      }
    },
    {
      "type": "Feature",
      "properties": {
        "name": "Müller-Wester"
      },
      "geometry": {
        "type": "Point",
        "coordinates": [
          5.978686,
          49.557845
        ]
      }
    },
    {
      "type": "Feature",
      "properties": {
        "name": "Boulangerie-Pâtisserie Mahaux sa"
      },
      "geometry": {
        "type": "Point",
        "coordinates": [
          5.905895,
          50.326
        ]
      }
    },
    {
      "type": "Feature",
      "properties": {
        "name": "Au Pain D'Épice"
      },
      "geometry": {
        "type": "Point",
        "coordinates": [
          5.908376,
          50.32466
        ]
      }
    },
    {
      "type": "Feature",
      "properties": {
        "name": "Factory Café"
      },
      "geometry": {
        "type": "Point",
        "coordinates": [
          5.912148,
          50.295014
        ]
      }
    },
    {
      "type": "Feature",
      "properties": {
        "name": "Grand Café"
      },
      "geometry": {
        "type": "Point",
        "coordinates": [
          5.912088,
          50.293387
        ]
      }
    },
    {
      "type": "Feature",
      "properties": {
        "name": "Les Glaces Dugailliez de Bergeval"
      },
      "geometry": {
        "type": "Point",
        "coordinates": [
          5.865807,
          50.35128
        ]
      }
    },
    {
      "type": "Feature",
      "properties": {
        "name": "Le chaudron magique"
      },
      "geometry": {
        "type": "Point",
        "coordinates": [
          5.917686,
          50.289081
        ]
      }
    },
    {
      "type": "Feature",
      "properties": {
        "name": "La Boulangerie de Papa"
      },
      "geometry": {
        "type": "Point",
        "coordinates": [
          5.914976,
          50.287282
        ]
      }
    },
    {
      "type": "Feature",
      "properties": {
        "name": "Café Faustine"
      },
      "geometry": {
        "type": "Point",
        "coordinates": [
          5.915388,
          50.286493
        ]
      }
    },
    {
      "type": "Feature",
      "properties": {
        "name": "Boulangerie Bomboir"
      },
      "geometry": {
        "type": "Point",
        "coordinates": [
          5.915378,
          50.286483
        ]
      }
    },
    {
      "type": "Feature",
      "properties": {
        "name": "Boulangerie-Pâtisserie Jos&Jean-Marie"
      },
      "geometry": {
        "type": "Point",
        "coordinates": [
          5.920657,
          49.54462
        ]
      }
    },
    {
      "type": "Feature",
      "properties": {
        "name": "Oliver's"
      },
      "geometry": {
        "type": "Point",
        "coordinates": [
          5.919009,
          50.283806
        ]
      }
    },
    {
      "type": "Feature",
      "properties": {
        "name": "Fred’s Corner"
      },
      "geometry": {
        "type": "Point",
        "coordinates": [
          5.829802,
          50.356399
        ]
      }
    },
    {
      "type": "Feature",
      "properties": {
        "name": "Ecole de Décor en Sucre d'Art"
      },
      "geometry": {
        "type": "Point",
        "coordinates": [
          5.977791,
          49.585969
        ]
      }
    },
    {
      "type": "Feature",
      "properties": {
        "name": "Café um Buer"
      },
      "geometry": {
        "type": "Point",
        "coordinates": [
          5.985188,
          49.575052
        ]
      }
    },
    {
      "type": "Feature",
      "properties": {
        "name": "Chez Anne"
      },
      "geometry": {
        "type": "Point",
        "coordinates": [
          5.875911,
          50.393179
        ]
      }
    },
    {
      "type": "Feature",
      "properties": {
        "name": "Lily Délices"
      },
      "geometry": {
        "type": "Point",
        "coordinates": [
          5.929606,
          50.394638
        ]
      }
    },
    {
      "type": "Feature",
      "properties": {
        "name": "Boulangerie Dumoulin"
      },
      "geometry": {
        "type": "Point",
        "coordinates": [
          5.929694,
          50.393705
        ]
      }
    },
    {
      "type": "Feature",
      "properties": {
        "name": "Demoulin / Nancy"
      },
      "geometry": {
        "type": "Point",
        "coordinates": [
          5.931419,
          50.395228
        ]
      }
    },
    {
      "type": "Feature",
      "properties": {
        "name": "Boulangerie Bourotte"
      },
      "geometry": {
        "type": "Point",
        "coordinates": [
          5.871369,
          50.371703
        ]
      }
    },
    {
      "type": "Feature",
      "properties": {
        "name": "Ice cream 2"
      },
      "geometry": {
        "type": "Point",
        "coordinates": [
          5.870267,
          50.371922
        ]
      }
    },
    {
      "type": "Feature",
      "properties": {
        "name": "Lily delices Trois ponts"
      },
      "geometry": {
        "type": "Point",
        "coordinates": [
          5.86931,
          50.371738
        ]
      }
    },
    {
      "type": "Feature",
      "properties": {
        "name": "Demartin Rudy"
      },
      "geometry": {
        "type": "Point",
        "coordinates": [
          5.871751,
          50.490151
        ]
      }
    },
    {
      "type": "Feature",
      "properties": {
        "name": "Boulangerie de la Sauvenière"
      },
      "geometry": {
        "type": "Point",
        "coordinates": [
          5.869763,
          50.489854
        ]
      }
    },
    {
      "type": "Feature",
      "properties": {
        "name": "Dome sprl and Son"
      },
      "geometry": {
        "type": "Point",
        "coordinates": [
          5.863093,
          50.490001
        ]
      }
    },
    {
      "type": "Feature",
      "properties": {
        "name": "Patisserie Demartin"
      },
      "geometry": {
        "type": "Point",
        "coordinates": [
          5.867806,
          50.492033
        ]
      }
    },
    {
      "type": "Feature",
      "properties": {
        "name": "Michael Moineau Pâtissier Chocolatier"
      },
      "geometry": {
        "type": "Point",
        "coordinates": [
          5.865942,
          50.49231
        ]
      }
    },
    {
      "type": "Feature",
      "properties": {
        "name": "Gourmandise&Vous"
      },
      "geometry": {
        "type": "Point",
        "coordinates": [
          5.866533,
          50.492591
        ]
      }
    },
    {
      "type": "Feature",
      "properties": {
        "name": "La Boule Royale"
      },
      "geometry": {
        "type": "Point",
        "coordinates": [
          5.865313,
          50.492469
        ]
      }
    },
    {
      "type": "Feature",
      "properties": {
        "name": "La Gâterie"
      },
      "geometry": {
        "type": "Point",
        "coordinates": [
          5.862898,
          50.491927
        ]
      }
    },
    {
      "type": "Feature",
      "properties": {
        "name": "La Crémière de Jalhay"
      },
      "geometry": {
        "type": "Point",
        "coordinates": [
          5.862986,
          50.491986
        ]
      }
    },
    {
      "type": "Feature",
      "properties": {
        "name": "Marc Buchet - Belgian Chocolate, Chocolate & Macaroon"
      },
      "geometry": {
        "type": "Point",
        "coordinates": [
          5.86312,
          50.492119
        ]
      }
    },
    {
      "type": "Feature",
      "properties": {
        "name": "Boulangerie Spa - Point chaud"
      },
      "geometry": {
        "type": "Point",
        "coordinates": [
          5.863349,
          50.492267
        ]
      }
    },
    {
      "type": "Feature",
      "properties": {
        "name": "Chez Blanche Spa"
      },
      "geometry": {
        "type": "Point",
        "coordinates": [
          5.861417,
          50.492426
        ]
      }
    },
    {
      "type": "Feature",
      "properties": {
        "name": "Le Seirgne"
      },
      "geometry": {
        "type": "Point",
        "coordinates": [
          5.861417,
          50.492426
        ]
      }
    },
    {
      "type": "Feature",
      "properties": {
        "name": "Livraison de petits déjeuner Gustave et Félicie"
      },
      "geometry": {
        "type": "Point",
        "coordinates": [
          5.846763,
          50.411478
        ]
      }
    },
    {
      "type": "Feature",
      "properties": {
        "name": "Le Fournil de Molly"
      },
      "geometry": {
        "type": "Point",
        "coordinates": [
          5.857752,
          50.49149
        ]
      }
    },
    {
      "type": "Feature",
      "properties": {
        "name": "Press'Gourmande Sprl"
      },
      "geometry": {
        "type": "Point",
        "coordinates": [
          5.910973,
          50.520756
        ]
      }
    },
    {
      "type": "Feature",
      "properties": {
        "name": "Martine Leroy"
      },
      "geometry": {
        "type": "Point",
        "coordinates": [
          5.917431,
          50.517141
        ]
      }
    },
    {
      "type": "Feature",
      "properties": {
        "name": "Boulangerie / Pâtisserie O. Cortin"
      },
      "geometry": {
        "type": "Point",
        "coordinates": [
          5.78887,
          50.487606
        ]
      }
    },
    {
      "type": "Feature",
      "properties": {
        "name": "Boulangerie Patisserie Aux Mille Saveurs Andrimont"
      },
      "geometry": {
        "type": "Point",
        "coordinates": [
          5.883601,
          50.614767
        ]
      }
    },
    {
      "type": "Feature",
      "properties": {
        "name": "A vi Fornè"
      },
      "geometry": {
        "type": "Point",
        "coordinates": [
          5.896119,
          50.597843
        ]
      }
    },
    {
      "type": "Feature",
      "properties": {
        "name": "LE GLACIER ALAIN.D"
      },
      "geometry": {
        "type": "Point",
        "coordinates": [
          5.873754,
          50.605996
        ]
      }
    },
    {
      "type": "Feature",
      "properties": {
        "name": "Caves D'Artois (Aux)"
      },
      "geometry": {
        "type": "Point",
        "coordinates": [
          5.878312,
          50.5987
        ]
      }
    },
    {
      "type": "Feature",
      "properties": {
        "name": "Show Les Croissants"
      },
      "geometry": {
        "type": "Point",
        "coordinates": [
          5.875989,
          50.596125
        ]
      }
    },
    {
      "type": "Feature",
      "properties": {
        "name": "Au Vi S'tembiet"
      },
      "geometry": {
        "type": "Point",
        "coordinates": [
          5.894685,
          50.59196
        ]
      }
    },
    {
      "type": "Feature",
      "properties": {
        "name": "Au Bon Matin"
      },
      "geometry": {
        "type": "Point",
        "coordinates": [
          5.891455,
          50.591596
        ]
      }
    },
    {
      "type": "Feature",
      "properties": {
        "name": "Boulangerie Verviers Limbourg - Point chaud"
      },
      "geometry": {
        "type": "Point",
        "coordinates": [
          5.874068,
          50.595461
        ]
      }
    },
    {
      "type": "Feature",
      "properties": {
        "name": "Les douceurs de Rose"
      },
      "geometry": {
        "type": "Point",
        "coordinates": [
          5.834343,
          50.576916
        ]
      }
    },
    {
      "type": "Feature",
      "properties": {
        "name": "Le Central"
      },
      "geometry": {
        "type": "Point",
        "coordinates": [
          5.838777,
          50.581285
        ]
      }
    },
    {
      "type": "Feature",
      "properties": {
        "name": "Glacier Aux délices des Rois"
      },
      "geometry": {
        "type": "Point",
        "coordinates": [
          5.839036,
          50.581757
        ]
      }
    },
    {
      "type": "Feature",
      "properties": {
        "name": "Danami Sprl"
      },
      "geometry": {
        "type": "Point",
        "coordinates": [
          5.845996,
          50.581372
        ]
      }
    },
    {
      "type": "Feature",
      "properties": {
        "name": "Boulangerie et Patisserie Hanlet"
      },
      "geometry": {
        "type": "Point",
        "coordinates": [
          5.840677,
          50.586938
        ]
      }
    },
    {
      "type": "Feature",
      "properties": {
        "name": "Clair-Ment Bon"
      },
      "geometry": {
        "type": "Point",
        "coordinates": [
          5.897431,
          50.665342
        ]
      }
    },
    {
      "type": "Feature",
      "properties": {
        "name": "L'instant Gourmand"
      },
      "geometry": {
        "type": "Point",
        "coordinates": [
          5.93114,
          50.677029
        ]
      }
    },
    {
      "type": "Feature",
      "properties": {
        "name": "Boulangerie Pâtisserie Remacle Henri-Chapelle"
      },
      "geometry": {
        "type": "Point",
        "coordinates": [
          5.933492,
          50.677727
        ]
      }
    },
    {
      "type": "Feature",
      "properties": {
        "name": "Unique Taverne"
      },
      "geometry": {
        "type": "Point",
        "coordinates": [
          5.853723,
          50.69382
        ]
      }
    },
    {
      "type": "Feature",
      "properties": {
        "name": "Leroy Didier"
      },
      "geometry": {
        "type": "Point",
        "coordinates": [
          5.810541,
          50.545685
        ]
      }
    },
    {
      "type": "Feature",
      "properties": {
        "name": "Cakotte"
      },
      "geometry": {
        "type": "Point",
        "coordinates": [
          5.80349,
          50.564899
        ]
      }
    },
    {
      "type": "Feature",
      "properties": {
        "name": "Boulangerie Grobet"
      },
      "geometry": {
        "type": "Point",
        "coordinates": [
          5.803488,
          50.564921
        ]
      }
    },
    {
      "type": "Feature",
      "properties": {
        "name": "Christelle Carion"
      },
      "geometry": {
        "type": "Point",
        "coordinates": [
          5.804785,
          50.567702
        ]
      }
    },
    {
      "type": "Feature",
      "properties": {
        "name": "Boulangerie Cardecuy"
      },
      "geometry": {
        "type": "Point",
        "coordinates": [
          5.82068,
          50.647604
        ]
      }
    },
    {
      "type": "Feature",
      "properties": {
        "name": "Chez Giova, Café"
      },
      "geometry": {
        "type": "Point",
        "coordinates": [
          5.820244,
          50.647546
        ]
      }
    },
    {
      "type": "Feature",
      "properties": {
        "name": "Aux Forges Les Eaux"
      },
      "geometry": {
        "type": "Point",
        "coordinates": [
          5.820561,
          50.650679
        ]
      }
    },
    {
      "type": "Feature",
      "properties": {
        "name": "Pâtisserie Jeanpierre Battice"
      },
      "geometry": {
        "type": "Point",
        "coordinates": [
          5.817724,
          50.647651
        ]
      }
    },
    {
      "type": "Feature",
      "properties": {
        "name": "La Mignardise"
      },
      "geometry": {
        "type": "Point",
        "coordinates": [
          5.822735,
          50.634384
        ]
      }
    },
    {
      "type": "Feature",
      "properties": {
        "name": "Schoonbroodt Dortu"
      },
      "geometry": {
        "type": "Point",
        "coordinates": [
          5.823039,
          50.63065
        ]
      }
    },
    {
      "type": "Feature",
      "properties": {
        "name": "Pâtisserie Theunissen"
      },
      "geometry": {
        "type": "Point",
        "coordinates": [
          5.788857,
          50.59206
        ]
      }
    },
    {
      "type": "Feature",
      "properties": {
        "name": "Maison Valençon - Avigauf"
      },
      "geometry": {
        "type": "Point",
        "coordinates": [
          5.800646,
          50.6297
        ]
      }
    },
    {
      "type": "Feature",
      "properties": {
        "name": "Safran Vanille"
      },
      "geometry": {
        "type": "Point",
        "coordinates": [
          5.86262,
          50.591845
        ]
      }
    },
    {
      "type": "Feature",
      "properties": {
        "name": "Mevlana Boulangerie Patisserie"
      },
      "geometry": {
        "type": "Point",
        "coordinates": [
          5.862143,
          50.589984
        ]
      }
    },
    {
      "type": "Feature",
      "properties": {
        "name": "Le Dôme"
      },
      "geometry": {
        "type": "Point",
        "coordinates": [
          5.862249,
          50.592464
        ]
      }
    },
    {
      "type": "Feature",
      "properties": {
        "name": "Vauban (Le)"
      },
      "geometry": {
        "type": "Point",
        "coordinates": [
          5.865752,
          50.592994
        ]
      }
    },
    {
      "type": "Feature",
      "properties": {
        "name": "Boulangerie Raskin"
      },
      "geometry": {
        "type": "Point",
        "coordinates": [
          5.866318,
          50.592742
        ]
      }
    },
    {
      "type": "Feature",
      "properties": {
        "name": "У СТАСА"
      },
      "geometry": {
        "type": "Point",
        "coordinates": [
          5.861773,
          50.593124
        ]
      }
    },
    {
      "type": "Feature",
      "properties": {
        "name": "Boulangerie Verviers Place Verte - Point chaud"
      },
      "geometry": {
        "type": "Point",
        "coordinates": [
          5.860112,
          50.592289
        ]
      }
    },
    {
      "type": "Feature",
      "properties": {
        "name": "Boulangerie Collin F."
      },
      "geometry": {
        "type": "Point",
        "coordinates": [
          5.864103,
          50.654547
        ]
      }
    },
    {
      "type": "Feature",
      "properties": {
        "name": "Café du Centre"
      },
      "geometry": {
        "type": "Point",
        "coordinates": [
          5.863787,
          50.653608
        ]
      }
    },
    {
      "type": "Feature",
      "properties": {
        "name": "Aux Mille Saveurs"
      },
      "geometry": {
        "type": "Point",
        "coordinates": [
          5.8457,
          50.664696
        ]
      }
    },
    {
      "type": "Feature",
      "properties": {
        "name": "Straet / Jean-Michel"
      },
      "geometry": {
        "type": "Point",
        "coordinates": [
          5.8457,
          50.664705
        ]
      }
    },
    {
      "type": "Feature",
      "properties": {
        "name": "Boulangerie Patisserie Au Pain Doró"
      },
      "geometry": {
        "type": "Point",
        "coordinates": [
          5.852683,
          50.596265
        ]
      }
    },
    {
      "type": "Feature",
      "properties": {
        "name": "Café Dison Ali"
      },
      "geometry": {
        "type": "Point",
        "coordinates": [
          5.854211,
          50.596509
        ]
      }
    },
    {
      "type": "Feature",
      "properties": {
        "name": "Glace Mario"
      },
      "geometry": {
        "type": "Point",
        "coordinates": [
          5.852556,
          50.59549
        ]
      }
    },
    {
      "type": "Feature",
      "properties": {
        "name": "Froncione"
      },
      "geometry": {
        "type": "Point",
        "coordinates": [
          5.852598,
          50.595488
        ]
      }
    },
    {
      "type": "Feature",
      "properties": {
        "name": "Café Izmir"
      },
      "geometry": {
        "type": "Point",
        "coordinates": [
          5.854468,
          50.595474
        ]
      }
    },
    {
      "type": "Feature",
      "properties": {
        "name": "Boulangerie Patisserie El Jawda"
      },
      "geometry": {
        "type": "Point",
        "coordinates": [
          5.853199,
          50.594916
        ]
      }
    },
    {
      "type": "Feature",
      "properties": {
        "name": "Papadopoulos / Pierre"
      },
      "geometry": {
        "type": "Point",
        "coordinates": [
          5.853997,
          50.595083
        ]
      }
    },
    {
      "type": "Feature",
      "properties": {
        "name": "PRESTIJ Cafe"
      },
      "geometry": {
        "type": "Point",
        "coordinates": [
          5.853833,
          50.595014
        ]
      }
    },
    {
      "type": "Feature",
      "properties": {
        "name": "Tsoutzidis / Constantinos"
      },
      "geometry": {
        "type": "Point",
        "coordinates": [
          5.854615,
          50.595147
        ]
      }
    },
    {
      "type": "Feature",
      "properties": {
        "name": "Café 66"
      },
      "geometry": {
        "type": "Point",
        "coordinates": [
          5.854593,
          50.595098
        ]
      }
    },
    {
      "type": "Feature",
      "properties": {
        "name": "Cafe Efsane"
      },
      "geometry": {
        "type": "Point",
        "coordinates": [
          5.855448,
          50.595192
        ]
      }
    },
    {
      "type": "Feature",
      "properties": {
        "name": "Moon coffee"
      },
      "geometry": {
        "type": "Point",
        "coordinates": [
          5.85067,
          50.593897
        ]
      }
    },
    {
      "type": "Feature",
      "properties": {
        "name": "Dagdelen / Naci"
      },
      "geometry": {
        "type": "Point",
        "coordinates": [
          5.854639,
          50.594709
        ]
      }
    },
    {
      "type": "Feature",
      "properties": {
        "name": "La Mie d'Aline"
      },
      "geometry": {
        "type": "Point",
        "coordinates": [
          5.857662,
          50.631355
        ]
      }
    },
    {
      "type": "Feature",
      "properties": {
        "name": "Pâtisserie Rudy Wertz"
      },
      "geometry": {
        "type": "Point",
        "coordinates": [
          5.870926,
          50.633303
        ]
      }
    },
    {
      "type": "Feature",
      "properties": {
        "name": "Morlotti-Leroy"
      },
      "geometry": {
        "type": "Point",
        "coordinates": [
          5.93279,
          50.514614
        ]
      }
    },
    {
      "type": "Feature",
      "properties": {
        "name": "Boul'ange rit Batta"
      },
      "geometry": {
        "type": "Point",
        "coordinates": [
          5.93151,
          50.516334
        ]
      }
    },
    {
      "type": "Feature",
      "properties": {
        "name": "Chez Giova, Café"
      },
      "geometry": {
        "type": "Point",
        "coordinates": [
          5.856944,
          50.709316
        ]
      }
    },
    {
      "type": "Feature",
      "properties": {
        "name": "Bar à glace - L'Emporté - Aubel"
      },
      "geometry": {
        "type": "Point",
        "coordinates": [
          5.857916,
          50.706335
        ]
      }
    },
    {
      "type": "Feature",
      "properties": {
        "name": "L'instant Gourmand"
      },
      "geometry": {
        "type": "Point",
        "coordinates": [
          5.857887,
          50.706018
        ]
      }
    },
    {
      "type": "Feature",
      "properties": {
        "name": "Gérard / Frédéric"
      },
      "geometry": {
        "type": "Point",
        "coordinates": [
          5.857797,
          50.705803
        ]
      }
    },
    {
      "type": "Feature",
      "properties": {
        "name": "Taverne Aubeloise"
      },
      "geometry": {
        "type": "Point",
        "coordinates": [
          5.857932,
          50.705679
        ]
      }
    },
    {
      "type": "Feature",
      "properties": {
        "name": "Patisserie Jeanpierre"
      },
      "geometry": {
        "type": "Point",
        "coordinates": [
          5.85773,
          50.705389
        ]
      }
    },
    {
      "type": "Feature",
      "properties": {
        "name": "Boulangerie Proumen"
      },
      "geometry": {
        "type": "Point",
        "coordinates": [
          5.859327,
          50.704002
        ]
      }
    },
    {
      "type": "Feature",
      "properties": {
        "name": "Boulangerie Pâtisserie Remacle - Aubel"
      },
      "geometry": {
        "type": "Point",
        "coordinates": [
          5.859584,
          50.703944
        ]
      }
    },
    {
      "type": "Feature",
      "properties": {
        "name": "Ô Bel Gaufre"
      },
      "geometry": {
        "type": "Point",
        "coordinates": [
          5.847865,
          50.698435
        ]
      }
    },
    {
      "type": "Feature",
      "properties": {
        "name": "De veurzerbron"
      },
      "geometry": {
        "type": "Point",
        "coordinates": [
          5.840873,
          50.738381
        ]
      }
    },
    {
      "type": "Feature",
      "properties": {
        "name": "Boulangerie Michel Burgers"
      },
      "geometry": {
        "type": "Point",
        "coordinates": [
          5.957091,
          50.722324
        ]
      }
    },
    {
      "type": "Feature",
      "properties": {
        "name": "La Chope"
      },
      "geometry": {
        "type": "Point",
        "coordinates": [
          5.962161,
          50.707986
        ]
      }
    },
    {
      "type": "Feature",
      "properties": {
        "name": "Boulangerie Otten - Montzen"
      },
      "geometry": {
        "type": "Point",
        "coordinates": [
          5.963788,
          50.708228
        ]
      }
    },
    {
      "type": "Feature",
      "properties": {
        "name": "Fitschy / Roger"
      },
      "geometry": {
        "type": "Point",
        "coordinates": [
          5.921529,
          50.723493
        ]
      }
    },
    {
      "type": "Feature",
      "properties": {
        "name": "Pub Grain d’Orge Hombourg"
      },
      "geometry": {
        "type": "Point",
        "coordinates": [
          5.920726,
          50.723053
        ]
      }
    },
    {
      "type": "Feature",
      "properties": {
        "name": "Boulangerie Christophe Born"
      },
      "geometry": {
        "type": "Point",
        "coordinates": [
          5.959352,
          50.736938
        ]
      }
    },
    {
      "type": "Feature",
      "properties": {
        "name": "Lilo‘s"
      },
      "geometry": {
        "type": "Point",
        "coordinates": [
          5.926093,
          50.736316
        ]
      }
    },
    {
      "type": "Feature",
      "properties": {
        "name": "Gelato Farm"
      },
      "geometry": {
        "type": "Point",
        "coordinates": [
          5.884286,
          50.76438
        ]
      }
    },
    {
      "type": "Feature",
      "properties": {
        "name": "Zotte Lambiek Biercafé"
      },
      "geometry": {
        "type": "Point",
        "coordinates": [
          5.872499,
          50.753212
        ]
      }
    },
    {
      "type": "Feature",
      "properties": {
        "name": "Bakkerij Franssen"
      },
      "geometry": {
        "type": "Point",
        "coordinates": [
          5.914635,
          50.772454
        ]
      }
    },
    {
      "type": "Feature",
      "properties": {
        "name": "Bakkerij Vermeeren"
      },
      "geometry": {
        "type": "Point",
        "coordinates": [
          5.861287,
          50.768902
        ]
      }
    },
    {
      "type": "Feature",
      "properties": {
        "name": "‘t Voerboertje"
      },
      "geometry": {
        "type": "Point",
        "coordinates": [
          5.850152,
          50.746046
        ]
      }
    },
    {
      "type": "Feature",
      "properties": {
        "name": "Wingbergerhoeve IJs & Fruit"
      },
      "geometry": {
        "type": "Point",
        "coordinates": [
          5.922619,
          50.772947
        ]
      }
    },
    {
      "type": "Feature",
      "properties": {
        "name": "De Helenahoeve"
      },
      "geometry": {
        "type": "Point",
        "coordinates": [
          5.8553,
          50.773868
        ]
      }
    },
    {
      "type": "Feature",
      "properties": {
        "name": "Cafe Ankara"
      },
      "geometry": {
        "type": "Point",
        "coordinates": [
          5.854903,
          50.594552
        ]
      }
    },
    {
      "type": "Feature",
      "properties": {
        "name": "Boulangerie Blé D'or"
      },
      "geometry": {
        "type": "Point",
        "coordinates": [
          5.855113,
          50.593657
        ]
      }
    },
    {
      "type": "Feature",
      "properties": {
        "name": "BASKENT CAFE"
      },
      "geometry": {
        "type": "Point",
        "coordinates": [
          5.854907,
          50.59363
        ]
      }
    },
    {
      "type": "Feature",
      "properties": {
        "name": "Cafe 29"
      },
      "geometry": {
        "type": "Point",
        "coordinates": [
          5.854248,
          50.593947
        ]
      }
    },
    {
      "type": "Feature",
      "properties": {
        "name": "RAYAN COFFEE"
      },
      "geometry": {
        "type": "Point",
        "coordinates": [
          5.854355,
          50.593756
        ]
      }
    },
    {
      "type": "Feature",
      "properties": {
        "name": "Au Renouveau"
      },
      "geometry": {
        "type": "Point",
        "coordinates": [
          5.922924,
          50.652451
        ]
      }
    },
    {
      "type": "Feature",
      "properties": {
        "name": "Boulangerie Pâtisserie Remacle - Baelen"
      },
      "geometry": {
        "type": "Point",
        "coordinates": [
          5.970158,
          50.628831
        ]
      }
    },
    {
      "type": "Feature",
      "properties": {
        "name": "Radermecker / Leon"
      },
      "geometry": {
        "type": "Point",
        "coordinates": [
          5.972393,
          50.630067
        ]
      }
    },
    {
      "type": "Feature",
      "properties": {
        "name": "Glace artisanale - Baelen"
      },
      "geometry": {
        "type": "Point",
        "coordinates": [
          5.968359,
          50.627593
        ]
      }
    },
    {
      "type": "Feature",
      "properties": {
        "name": "Matt'lo"
      },
      "geometry": {
        "type": "Point",
        "coordinates": [
          5.971463,
          50.628966
        ]
      }
    },
    {
      "type": "Feature",
      "properties": {
        "name": "Tavern Park"
      },
      "geometry": {
        "type": "Point",
        "coordinates": [
          5.973661,
          50.660225
        ]
      }
    },
    {
      "type": "Feature",
      "properties": {
        "name": "OH LA VACHE !"
      },
      "geometry": {
        "type": "Point",
        "coordinates": [
          5.973652,
          50.660393
        ]
      }
    },
    {
      "type": "Feature",
      "properties": {
        "name": "L'emporté 2 - Welkenraedt"
      },
      "geometry": {
        "type": "Point",
        "coordinates": [
          5.973755,
          50.661309
        ]
      }
    },
    {
      "type": "Feature",
      "properties": {
        "name": "Ferme de Gérard Sart"
      },
      "geometry": {
        "type": "Point",
        "coordinates": [
          5.973723,
          50.661331
        ]
      }
    },
    {
      "type": "Feature",
      "properties": {
        "name": "Boulangerie Didderen"
      },
      "geometry": {
        "type": "Point",
        "coordinates": [
          5.974618,
          50.661853
        ]
      }
    },
    {
      "type": "Feature",
      "properties": {
        "name": "Born Christophe"
      },
      "geometry": {
        "type": "Point",
        "coordinates": [
          5.976206,
          50.663056
        ]
      }
    },
    {
      "type": "Feature",
      "properties": {
        "name": "Café Le Lierre"
      },
      "geometry": {
        "type": "Point",
        "coordinates": [
          5.941409,
          50.620328
        ]
      }
    },
    {
      "type": "Feature",
      "properties": {
        "name": "Boulangerie Pâtisserie Remacle - Dolhain"
      },
      "geometry": {
        "type": "Point",
        "coordinates": [
          5.940398,
          50.620302
        ]
      }
    },
    {
      "type": "Feature",
      "properties": {
        "name": "L'Epi Des Sables"
      },
      "geometry": {
        "type": "Point",
        "coordinates": [
          5.854232,
          50.593638
        ]
      }
    },
    {
      "type": "Feature",
      "properties": {
        "name": "Bakkerij Deckers"
      },
      "geometry": {
        "type": "Point",
        "coordinates": [
          5.815197,
          50.789839
        ]
      }
    },
    {
      "type": "Feature",
      "properties": {
        "name": "Café \"Offermans\""
      },
      "geometry": {
        "type": "Point",
        "coordinates": [
          5.841166,
          50.773508
        ]
      }
    },
    {
      "type": "Feature",
      "properties": {
        "name": "Café Der Boemeler"
      },
      "geometry": {
        "type": "Point",
        "coordinates": [
          5.809593,
          50.789731
        ]
      }
    },
    {
      "type": "Feature",
      "properties": {
        "name": "A g'n Boomsjoeël"
      },
      "geometry": {
        "type": "Point",
        "coordinates": [
          5.819793,
          50.772166
        ]
      }
    },
    {
      "type": "Feature",
      "properties": {
        "name": "Café La Ville"
      },
      "geometry": {
        "type": "Point",
        "coordinates": [
          5.963463,
          50.787241
        ]
      }
    },
    {
      "type": "Feature",
      "properties": {
        "name": "Bakkerij Notermans"
      },
      "geometry": {
        "type": "Point",
        "coordinates": [
          5.963479,
          50.787164
        ]
      }
    },
    {
      "type": "Feature",
      "properties": {
        "name": "Banketbakkerij Meens"
      },
      "geometry": {
        "type": "Point",
        "coordinates": [
          5.922786,
          50.793899
        ]
      }
    },
    {
      "type": "Feature",
      "properties": {
        "name": "Boscafé 't Hijgend Hert"
      },
      "geometry": {
        "type": "Point",
        "coordinates": [
          5.9645,
          50.771646
        ]
      }
    },
    {
      "type": "Feature",
      "properties": {
        "name": "ijs Automaat"
      },
      "geometry": {
        "type": "Point",
        "coordinates": [
          5.936015,
          50.809471
        ]
      }
    },
    {
      "type": "Feature",
      "properties": {
        "name": "Bäckerei/Pâtisserie Schreiber Arnaud"
      },
      "geometry": {
        "type": "Point",
        "coordinates": [
          5.980219,
          50.661301
        ]
      }
    },
    {
      "type": "Feature",
      "properties": {
        "name": "Patisserie Bäckerei Hain"
      },
      "geometry": {
        "type": "Point",
        "coordinates": [
          5.981539,
          50.660176
        ]
      }
    },
    {
      "type": "Feature",
      "properties": {
        "name": "Otten Boulangerie"
      },
      "geometry": {
        "type": "Point",
        "coordinates": [
          5.98764,
          50.657361
        ]
      }
    },
    {
      "type": "Feature",
      "properties": {
        "name": "Sweets & Bites"
      },
      "geometry": {
        "type": "Point",
        "coordinates": [
          5.897384,
          50.829087
        ]
      }
    },
    {
      "type": "Feature",
      "properties": {
        "name": "Brood- en Banketbakkerij Henrotte B.V."
      },
      "geometry": {
        "type": "Point",
        "coordinates": [
          5.894966,
          50.83181
        ]
      }
    },
    {
      "type": "Feature",
      "properties": {
        "name": "Wielderhoes"
      },
      "geometry": {
        "type": "Point",
        "coordinates": [
          5.896394,
          50.832833
        ]
      }
    },
    {
      "type": "Feature",
      "properties": {
        "name": "Café Hazen-Wijnen"
      },
      "geometry": {
        "type": "Point",
        "coordinates": [
          5.893988,
          50.833419
        ]
      }
    },
    {
      "type": "Feature",
      "properties": {
        "name": "Bakkerij Voncken - Gulpen"
      },
      "geometry": {
        "type": "Point",
        "coordinates": [
          5.894274,
          50.815812
        ]
      }
    },
    {
      "type": "Feature",
      "properties": {
        "name": "Bakkerij Paulissen"
      },
      "geometry": {
        "type": "Point",
        "coordinates": [
          5.893656,
          50.815282
        ]
      }
    },
    {
      "type": "Feature",
      "properties": {
        "name": "Gio Gelato"
      },
      "geometry": {
        "type": "Point",
        "coordinates": [
          5.910334,
          50.81402
        ]
      }
    },
    {
      "type": "Feature",
      "properties": {
        "name": "I Gen Dörp"
      },
      "geometry": {
        "type": "Point",
        "coordinates": [
          5.883074,
          50.903861
        ]
      }
    },
    {
      "type": "Feature",
      "properties": {
        "name": "Bakkes (bakhuis) de Kalfhof"
      },
      "geometry": {
        "type": "Point",
        "coordinates": [
          5.889054,
          50.884504
        ]
      }
    },
    {
      "type": "Feature",
      "properties": {
        "name": "De IJsput"
      },
      "geometry": {
        "type": "Point",
        "coordinates": [
          5.913442,
          50.891741
        ]
      }
    },
    {
      "type": "Feature",
      "properties": {
        "name": "Forno"
      },
      "geometry": {
        "type": "Point",
        "coordinates": [
          5.879609,
          50.879146
        ]
      }
    },
    {
      "type": "Feature",
      "properties": {
        "name": "Vof Bakkerij Lemmens A&M Klimmen"
      },
      "geometry": {
        "type": "Point",
        "coordinates": [
          5.879461,
          50.878598
        ]
      }
    },
    {
      "type": "Feature",
      "properties": {
        "name": "Cakes and bakes zuid limburg"
      },
      "geometry": {
        "type": "Point",
        "coordinates": [
          5.87911,
          50.878292
        ]
      }
    },
    {
      "type": "Feature",
      "properties": {
        "name": "Aan Hoes"
      },
      "geometry": {
        "type": "Point",
        "coordinates": [
          5.885793,
          50.916975
        ]
      }
    },
    {
      "type": "Feature",
      "properties": {
        "name": "Sweet Treats by Kira"
      },
      "geometry": {
        "type": "Point",
        "coordinates": [
          5.885908,
          50.917148
        ]
      }
    },
    {
      "type": "Feature",
      "properties": {
        "name": "Bakkerij Voncken - Nuth"
      },
      "geometry": {
        "type": "Point",
        "coordinates": [
          5.88316,
          50.91724
        ]
      }
    },
    {
      "type": "Feature",
      "properties": {
        "name": "Café op de Trepkes"
      },
      "geometry": {
        "type": "Point",
        "coordinates": [
          5.860576,
          50.889334
        ]
      }
    },
    {
      "type": "Feature",
      "properties": {
        "name": "Bakkerij Lemmens BV"
      },
      "geometry": {
        "type": "Point",
        "coordinates": [
          5.857579,
          50.890176
        ]
      }
    },
    {
      "type": "Feature",
      "properties": {
        "name": "Café het Trefpunt"
      },
      "geometry": {
        "type": "Point",
        "coordinates": [
          5.854354,
          50.893136
        ]
      }
    },
    {
      "type": "Feature",
      "properties": {
        "name": "Hot Point"
      },
      "geometry": {
        "type": "Point",
        "coordinates": [
          5.880883,
          50.58554
        ]
      }
    },
    {
      "type": "Feature",
      "properties": {
        "name": "Boulangerie Conrath"
      },
      "geometry": {
        "type": "Point",
        "coordinates": [
          5.883729,
          50.584378
        ]
      }
    },