{
  "type": "FeatureCollection",
  "features": [
    {
      "type": "Feature",
      "properties": {
        "name": "Intermarché CONTACT Cussey Sur L'Ognon"
      },
      "geometry": {
        "type": "Point",
        "coordinates": [
          5.93934,
          47.335935
        ]
      }
    },
    {
      "type": "Feature",
      "properties": {
        "name": "Super U et Drive"
      },
      "geometry": {
        "type": "Point",
        "coordinates": [
          5.924361,
          47.256297
        ]
      }
    },
    {
      "type": "Feature",
      "properties": {
        "name": "Carrefour Contact"
      },
      "geometry": {
        "type": "Point",
        "coordinates": [
          5.846534,
          47.425676
        ]
      }
    },
    {
      "type": "Feature",
      "properties": {
        "name": "Carrefour Contact"
      },
      "geometry": {
        "type": "Point",
        "coordinates": [
          5.859457,
          47.549551
        ]
      }
    },
    {
      "type": "Feature",
      "properties": {
        "name": "AUDREY MALLET (Au Panier Sympa)"
      },
      "geometry": {
        "type": "Point",
        "coordinates": [
          5.953918,
          47.571024
        ]
      }
    },
    {
      "type": "Feature",
      "properties": {
        "name": "Épicerie GOISET"
      },
      "geometry": {
        "type": "Point",
        "coordinates": [
          5.876571,
          47.665409
        ]
      }
    },
    {
      "type": "Feature",
      "properties": {
        "name": "Crèmerie Ligny"
      },
      "geometry": {
        "type": "Point",
        "coordinates": [
          5.890457,
          47.71068
        ]
      }
    },
    {
      "type": "Feature",
      "properties": {
        "name": "L'épicerie d Adèle"
      },
      "geometry": {
        "type": "Point",
        "coordinates": [
          5.900959,
          47.82606
        ]
      }
    },
    {
      "type": "Feature",
      "properties": {
        "name": "Lidl"
      },
      "geometry": {
        "type": "Point",
        "coordinates": [
          5.89918,
          47.82755
        ]
      }
    },
    {
      "type": "Feature",
      "properties": {
        "name": "Intermarché SUPER Jussey"
      },
      "geometry": {
        "type": "Point",
        "coordinates": [
          5.892848,
          47.829083
        ]
      }
    },
    {
      "type": "Feature",
      "properties": {
        "name": "Carrefour Market Jussey"
      },
      "geometry": {
        "type": "Point",
        "coordinates": [
          5.907147,
          47.82753
        ]
      }
    },
    {
      "type": "Feature",
      "properties": {
        "name": "ALDI"
      },
      "geometry": {
        "type": "Point",
        "coordinates": [
          5.91333,
          47.83946
        ]
      }
    },
    {
      "type": "Feature",
      "properties": {
        "name": "Les Gourmandise de Bernadette"
      },
      "geometry": {
        "type": "Point",
        "coordinates": [
          5.848371,
          48.054719
        ]
      }
    },
    {
      "type": "Feature",
      "properties": {
        "name": "Au ptit marché"
      },
      "geometry": {
        "type": "Point",
        "coordinates": [
          5.825571,
          48.108523
        ]
      }
    },
    {
      "type": "Feature",
      "properties": {
        "name": "Toutes Épices"
      },
      "geometry": {
        "type": "Point",
        "coordinates": [
          5.89421,
          48.181439
        ]
      }
    },
    {
      "type": "Feature",
      "properties": {
        "name": "Esprit Paysan CONTREXEVILLE"
      },
      "geometry": {
        "type": "Point",
        "coordinates": [
          5.893655,
          48.189472
        ]
      }
    },
    {
      "type": "Feature",
      "properties": {
        "name": "E.Leclerc CONTREXEVILLE"
      },
      "geometry": {
        "type": "Point",
        "coordinates": [
          5.881722,
          48.188823
        ]
      }
    },
    {
      "type": "Feature",
      "properties": {
        "name": "Intermarché SUPER Contrexeville"
      },
      "geometry": {
        "type": "Point",
        "coordinates": [
          5.902546,
          48.188872
        ]
      }
    },
    {
      "type": "Feature",
      "properties": {
        "name": "E.Leclerc DRIVE Contrexeville"
      },
      "geometry": {
        "type": "Point",
        "coordinates": [
          5.880831,
          48.188679
        ]
      }
    },
    {
      "type": "Feature",
      "properties": {
        "name": "ALDI"
      },
      "geometry": {
        "type": "Point",
        "coordinates": [
          5.883594,
          48.189454
        ]
      }
    },
    {
      "type": "Feature",
      "properties": {
        "name": "LE GOUT DES PRES"
      },
      "geometry": {
        "type": "Point",
        "coordinates": [
          5.913718,
          48.320654
        ]
      }
    },
    {
      "type": "Feature",
      "properties": {
        "name": "PROXI"
      },
      "geometry": {
        "type": "Point",
        "coordinates": [
          5.92777,
          48.310418
        ]
      }
    },
    {
      "type": "Feature",
      "properties": {
        "name": "Super U et Drive"
      },
      "geometry": {
        "type": "Point",
        "coordinates": [
          5.843134,
          48.300156
        ]
      }
    },
    {
      "type": "Feature",
      "properties": {
        "name": "4h10"
      },
      "geometry": {
        "type": "Point",
        "coordinates": [
          5.84134,
          48.299474
        ]
      }
    },
    {
      "type": "Feature",
      "properties": {
        "name": "ALDI Châtenois"
      },
      "geometry": {
        "type": "Point",
        "coordinates": [
          5.840123,
          48.299295
        ]
      }
    },
    {
      "type": "Feature",
      "properties": {
        "name": "Panier Sympa - Vittel"
      },
      "geometry": {
        "type": "Point",
        "coordinates": [
          5.948832,
          48.200649
        ]
      }
    },
    {
      "type": "Feature",
      "properties": {
        "name": "SPAR Supermarché"
      },
      "geometry": {
        "type": "Point",
        "coordinates": [
          5.947289,
          48.201386
        ]
      }
    },
    {
      "type": "Feature",
      "properties": {
        "name": "Carrefour Market Vittel"
      },
      "geometry": {
        "type": "Point",
        "coordinates": [
          5.942019,
          48.198284
        ]
      }
    },
    {
      "type": "Feature",
      "properties": {
        "name": "Chez POULETTE"
      },
      "geometry": {
        "type": "Point",
        "coordinates": [
          5.94509,
          48.201739
        ]
      }
    },
    {
      "type": "Feature",
      "properties": {
        "name": "Le Sicilien"
      },
      "geometry": {
        "type": "Point",
        "coordinates": [
          5.944429,
          48.201963
        ]
      }
    },
    {
      "type": "Feature",
      "properties": {
        "name": "Les therme"
      },
      "geometry": {
        "type": "Point",
        "coordinates": [
          5.943496,
          48.202541
        ]
      }
    },
    {
      "type": "Feature",
      "properties": {
        "name": "Lidl"
      },
      "geometry": {
        "type": "Point",
        "coordinates": [
          5.939804,
          48.199815
        ]
      }
    },
    {
      "type": "Feature",
      "properties": {
        "name": "Biocoop Biovair"
      },
      "geometry": {
        "type": "Point",
        "coordinates": [
          5.947627,
          48.20357
        ]
      }
    },
    {
      "type": "Feature",
      "properties": {
        "name": "Culminique Primeurs"
      },
      "geometry": {
        "type": "Point",
        "coordinates": [
          5.966864,
          48.196039
        ]
      }
    },
    {
      "type": "Feature",
      "properties": {
        "name": "Intermarché CONTACT Colombey Les Belles"
      },
      "geometry": {
        "type": "Point",
        "coordinates": [
          5.895992,
          48.535719
        ]
      }
    },
    {
      "type": "Feature",
      "properties": {
        "name": "Myboeuf, le distributeur automatique"
      },
      "geometry": {
        "type": "Point",
        "coordinates": [
          5.883986,
          48.558753
        ]
      }
    },
    {
      "type": "Feature",
      "properties": {
        "name": "Le Marché Fermier"
      },
      "geometry": {
        "type": "Point",
        "coordinates": [
          5.945143,
          48.583854
        ]
      }
    },
    {
      "type": "Feature",
      "properties": {
        "name": "G.a.e.c. Des Primeurs Du Toulois"
      },
      "geometry": {
        "type": "Point",
        "coordinates": [
          5.839492,
          48.61506
        ]
      }
    },
    {
      "type": "Feature",
      "properties": {
        "name": "LES SAVEURS DU COLOMBIER"
      },
      "geometry": {
        "type": "Point",
        "coordinates": [
          5.906254,
          48.698744
        ]
      }
    },
    {
      "type": "Feature",
      "properties": {
        "name": "La Ferme Romé (GAEC)"
      },
      "geometry": {
        "type": "Point",
        "coordinates": [
          5.867857,
          48.779336
        ]
      }
    },
    {
      "type": "Feature",
      "properties": {
        "name": "Ecurie Marcel et Ginette"
      },
      "geometry": {
        "type": "Point",
        "coordinates": [
          5.870312,
          48.78139
        ]
      }
    },
    {
      "type": "Feature",
      "properties": {
        "name": "Les Halles Blachere Bernard"
      },
      "geometry": {
        "type": "Point",
        "coordinates": [
          5.902121,
          48.690871
        ]
      }
    },
    {
      "type": "Feature",
      "properties": {
        "name": "Cora"
      },
      "geometry": {
        "type": "Point",
        "coordinates": [
          5.887236,
          48.663771
        ]
      }
    },
    {
      "type": "Feature",
      "properties": {
        "name": "Lidl"
      },
      "geometry": {
        "type": "Point",
        "coordinates": [
          5.890426,
          48.671693
        ]
      }
    },
    {
      "type": "Feature",
      "properties": {
        "name": "Lor'n Bio"
      },
      "geometry": {
        "type": "Point",
        "coordinates": [
          5.887226,
          48.672807
        ]
      }
    },
    {
      "type": "Feature",
      "properties": {
        "name": "Proxi Super Toul"
      },
      "geometry": {
        "type": "Point",
        "coordinates": [
          5.890752,
          48.674055
        ]
      }
    },
    {
      "type": "Feature",
      "properties": {
        "name": "SPAR Supermarché"
      },
      "geometry": {
        "type": "Point",
        "coordinates": [
          5.88828,
          48.673662
        ]
      }
    },
    {
      "type": "Feature",
      "properties": {
        "name": "Etoile D'or"
      },
      "geometry": {
        "type": "Point",
        "coordinates": [
          5.890209,
          48.674546
        ]
      }
    },
    {
      "type": "Feature",
      "properties": {
        "name": "ALDI"
      },
      "geometry": {
        "type": "Point",
        "coordinates": [
          5.901548,
          48.67237
        ]
      }
    },
    {
      "type": "Feature",
      "properties": {
        "name": "Colruyt Retail France"
      },
      "geometry": {
        "type": "Point",
        "coordinates": [
          5.877869,
          48.662379
        ]
      }
    },
    {
      "type": "Feature",
      "properties": {
        "name": "Les Noces de Kna"
      },
      "geometry": {
        "type": "Point",
        "coordinates": [
          5.823457,
          48.64344
        ]
      }
    },
    {
      "type": "Feature",
      "properties": {
        "name": "Épicerie du Village"
      },
      "geometry": {
        "type": "Point",
        "coordinates": [
          5.929058,
          48.81727
        ]
      }
    },
    {
      "type": "Feature",
      "properties": {
        "name": "Le Relais Miam"
      },
      "geometry": {
        "type": "Point",
        "coordinates": [
          5.847461,
          48.875886
        ]
      }
    },
    {
      "type": "Feature",
      "properties": {
        "name": "Carrefour Contact"
      },
      "geometry": {
        "type": "Point",
        "coordinates": [
          5.973456,
          48.691725
        ]
      }
    },
    {
      "type": "Feature",
      "properties": {
        "name": "Carrefour Contact"
      },
      "geometry": {
        "type": "Point",
        "coordinates": [
          5.8765,
          48.946137
        ]
      }
    },
    {
      "type": "Feature",
      "properties": {
        "name": "MARCHE"
      },
      "geometry": {
        "type": "Point",
        "coordinates": [
          5.882134,
          49.156809
        ]
      }
    },
    {
      "type": "Feature",
      "properties": {
        "name": "NORMA"
      },
      "geometry": {
        "type": "Point",
        "coordinates": [
          5.879928,
          49.157488
        ]
      }
    },
    {
      "type": "Feature",
      "properties": {
        "name": "Intermarché SUPER Jarny"
      },
      "geometry": {
        "type": "Point",
        "coordinates": [
          5.873472,
          49.160665
        ]
      }
    },
    {
      "type": "Feature",
      "properties": {
        "name": "Netto"
      },
      "geometry": {
        "type": "Point",
        "coordinates": [
          5.937279,
          49.323645
        ]
      }
    },
    {
      "type": "Feature",
      "properties": {
        "name": "L'épicerie"
      },
      "geometry": {
        "type": "Point",
        "coordinates": [
          5.93063,
          49.24
        ]
      }
    },
    {
      "type": "Feature",
      "properties": {
        "name": "The new market"
      },
      "geometry": {
        "type": "Point",
        "coordinates": [
          5.901811,
          49.373642
        ]
      }
    },
    {
      "type": "Feature",
      "properties": {
        "name": "Lidl"
      },
      "geometry": {
        "type": "Point",
        "coordinates": [
          5.91888,
          49.387542
        ]
      }
    },
    {
      "type": "Feature",
      "properties": {
        "name": "E.Leclerc AUDUN-LE-ROMAN"
      },
      "geometry": {
        "type": "Point",
        "coordinates": [
          5.903916,
          49.37013
        ]
      }
    },
    {
      "type": "Feature",
      "properties": {
        "name": "E.Leclerc DRIVE Audun-Le-Roman"
      },
      "geometry": {
        "type": "Point",
        "coordinates": [
          5.904396,
          49.370046
        ]
      }
    },
    {
      "type": "Feature",
      "properties": {
        "name": "Supermarche Colruyt"
      },
      "geometry": {
        "type": "Point",
        "coordinates": [
          5.919661,
          49.389369
        ]
      }
    },
    {
      "type": "Feature",
      "properties": {
        "name": "Epicerie Altroché"
      },
      "geometry": {
        "type": "Point",
        "coordinates": [
          5.947985,
          49.381135
        ]
      }
    },
    {
      "type": "Feature",
      "properties": {
        "name": "Monasson Jean-Marie"
      },
      "geometry": {
        "type": "Point",
        "coordinates": [
          5.880435,
          49.437601
        ]
      }
    },
    {
      "type": "Feature",
      "properties": {
        "name": "Proxi super"
      },
      "geometry": {
        "type": "Point",
        "coordinates": [
          5.928889,
          49.455248
        ]
      }
    },
    {
      "type": "Feature",
      "properties": {
        "name": "Supermarché Match (Villerupt)"
      },
      "geometry": {
        "type": "Point",
        "coordinates": [
          5.925846,
          49.47061
        ]
      }
    },
    {
      "type": "Feature",
      "properties": {
        "name": "Barboni Fils Sarl"
      },
      "geometry": {
        "type": "Point",
        "coordinates": [
          5.931843,
          49.461895
        ]
      }
    },
    {
      "type": "Feature",
      "properties": {
        "name": "A Minha Epicerie"
      },
      "geometry": {
        "type": "Point",
        "coordinates": [
          5.928584,
          49.469242
        ]
      }
    },
    {
      "type": "Feature",
      "properties": {
        "name": "Bio Cbd Villerupt"
      },
      "geometry": {
        "type": "Point",
        "coordinates": [
          5.931623,
          49.470197
        ]
      }
    },
    {
      "type": "Feature",
      "properties": {
        "name": "copet"
      },
      "geometry": {
        "type": "Point",
        "coordinates": [
          5.939908,
          49.20884
        ]
      }
    },
    {
      "type": "Feature",
      "properties": {
        "name": "Interbetail"
      },
      "geometry": {
        "type": "Point",
        "coordinates": [
          5.939734,
          49.208781
        ]
      }
    },
    {
      "type": "Feature",
      "properties": {
        "name": "Alimentation de l'Orne"
      },
      "geometry": {
        "type": "Point",
        "coordinates": [
          5.977241,
          49.211506
        ]
      }
    },
    {
      "type": "Feature",
      "properties": {
        "name": "Super U et Drive"
      },
      "geometry": {
        "type": "Point",
        "coordinates": [
          5.945479,
          49.256193
        ]
      }
    },
    {
      "type": "Feature",
      "properties": {
        "name": "Aldi Briey"
      },
      "geometry": {
        "type": "Point",
        "coordinates": [
          5.947758,
          49.253883
        ]
      }
    },
    {
      "type": "Feature",
      "properties": {
        "name": "Carrefour Drive Piéton"
      },
      "geometry": {
        "type": "Point",
        "coordinates": [
          5.868697,
          49.493587
        ]
      }
    },
    {
      "type": "Feature",
      "properties": {
        "name": "Carrefour Express"
      },
      "geometry": {
        "type": "Point",
        "coordinates": [
          5.868724,
          49.493561
        ]
      }
    },
    {
      "type": "Feature",
      "properties": {
        "name": "ALDI Aumetz"
      },
      "geometry": {
        "type": "Point",
        "coordinates": [
          5.947833,
          49.411879
        ]
      }
    },
    {
      "type": "Feature",
      "properties": {
        "name": "Intermarché SUPER Aumetz"
      },
      "geometry": {
        "type": "Point",
        "coordinates": [
          5.950852,
          49.411783
        ]
      }
    },
    {
      "type": "Feature",
      "properties": {
        "name": "Asie Express"
      },
      "geometry": {
        "type": "Point",
        "coordinates": [
          5.948496,
          49.497011
        ]
      }
    },
    {
      "type": "Feature",
      "properties": {
        "name": "Delhaize Belval"
      },
      "geometry": {
        "type": "Point",
        "coordinates": [
          5.945196,
          49.502116
        ]
      }
    },
    {
      "type": "Feature",
      "properties": {
        "name": "ALDI Belval"
      },
      "geometry": {
        "type": "Point",
        "coordinates": [
          5.944422,
          49.502175
        ]
      }
    },
    {
      "type": "Feature",
      "properties": {
        "name": "REGIONS GOURMANDES"
      },
      "geometry": {
        "type": "Point",
        "coordinates": [
          5.92552,
          49.490465
        ]
      }
    },
    {
      "type": "Feature",
      "properties": {
        "name": "Carrefour express Niederkorn"
      },
      "geometry": {
        "type": "Point",
        "coordinates": [
          5.891211,
          49.534635
        ]
      }
    },
    {
      "type": "Feature",
      "properties": {
        "name": "Primavera Market Differdange"
      },
      "geometry": {
        "type": "Point",
        "coordinates": [
          5.890062,
          49.525045
        ]
      }
    },
    {
      "type": "Feature",
      "properties": {
        "name": "Proxy Delhaize Cité du Fer (Differdange)"
      },
      "geometry": {
        "type": "Point",
        "coordinates": [
          5.891543,
          49.52477
        ]
      }
    },
    {
      "type": "Feature",
      "properties": {
        "name": "Epicerie des Ecoles"
      },
      "geometry": {
        "type": "Point",
        "coordinates": [
          5.891051,
          49.535661
        ]
      }
    },
    {
      "type": "Feature",
      "properties": {
        "name": "ALBARAKA MARKET"
      },
      "geometry": {
        "type": "Point",
        "coordinates": [
          5.889145,
          49.524309
        ]
      }
    },
    {
      "type": "Feature",
      "properties": {
        "name": "Yigo asian market 易购亚洲超市"
      },
      "geometry": {
        "type": "Point",
        "coordinates": [
          5.888946,
          49.524117
        ]
      }
    },
    {
      "type": "Feature",
      "properties": {
        "name": "Super U"
      },
      "geometry": {
        "type": "Point",
        "coordinates": [
          5.980732,
          49.356905
        ]
      }
    },
    {
      "type": "Feature",
      "properties": {
        "name": "Mafra Organic SARLS"
      },
      "geometry": {
        "type": "Point",
        "coordinates": [
          5.912757,
          49.570994
        ]
      }
    },
    {
      "type": "Feature",
      "properties": {
        "name": "Smatch Bascharage"
      },
      "geometry": {
        "type": "Point",
        "coordinates": [
          5.908094,
          49.566478
        ]
      }
    },
    {
      "type": "Feature",
      "properties": {
        "name": "NORMA"
      },
      "geometry": {
        "type": "Point",
        "coordinates": [
          5.932682,
          49.473155
        ]
      }
    },
    {
      "type": "Feature",
      "properties": {
        "name": "Epicerie Mathgen"
      },
      "geometry": {
        "type": "Point",
        "coordinates": [
          5.878677,
          49.684143
        ]
      }
    },
    {
      "type": "Feature",
      "properties": {
        "name": "Beim Lydia Epicerie"
      },
      "geometry": {
        "type": "Point",
        "coordinates": [
          5.878648,
          49.68416
        ]
      }
    },
    {
      "type": "Feature",
      "properties": {
        "name": "Shop & Go Steinfort"
      },
      "geometry": {
        "type": "Point",
        "coordinates": [
          5.906944,
          49.659038
        ]
      }
    },
    {
      "type": "Feature",
      "properties": {
        "name": "Nova Asia distribution"
      },
      "geometry": {
        "type": "Point",
        "coordinates": [
          5.91764,
          49.659924
        ]
      }
    },
    {
      "type": "Feature",
      "properties": {
        "name": "Pall Food Market"
      },
      "geometry": {
        "type": "Point",
        "coordinates": [
          5.918109,
          49.659509
        ]
      }
    },
    {
      "type": "Feature",
      "properties": {
        "name": "Yus Market"
      },
      "geometry": {
        "type": "Point",
        "coordinates": [
          5.834401,
          49.563711
        ]
      }
    },
    {
      "type": "Feature",
      "properties": {
        "name": "Night Shop Athus"
      },
      "geometry": {
        "type": "Point",
        "coordinates": [
          5.83576,
          49.562917
        ]
      }
    },
    {
      "type": "Feature",
      "properties": {
        "name": "Carrefour Express"
      },
      "geometry": {
        "type": "Point",
        "coordinates": [
          5.837565,
          49.562794
        ]
      }
    },
    {
      "type": "Feature",
      "properties": {
        "name": "Os market"
      },
      "geometry": {
        "type": "Point",
        "coordinates": [
          5.836275,
          49.562724
        ]
      }
    },
    {
      "type": "Feature",
      "properties": {
        "name": "A Despensa de Athus SPRL"
      },
      "geometry": {
        "type": "Point",
        "coordinates": [
          5.83164,
          49.562979
        ]
      }
    },
    {
      "type": "Feature",
      "properties": {
        "name": "Akwaba africa"
      },
      "geometry": {
        "type": "Point",
        "coordinates": [
          5.830784,
          49.563007
        ]
      }
    },
    {
      "type": "Feature",
      "properties": {
        "name": "Maxi Market Libramont"
      },
      "geometry": {
        "type": "Point",
        "coordinates": [
          5.839245,
          49.559093
        ]
      }
    },
    {
      "type": "Feature",
      "properties": {
        "name": "Delhaize Athus"
      },
      "geometry": {
        "type": "Point",
        "coordinates": [
          5.839637,
          49.55871
        ]
      }
    },
    {
      "type": "Feature",
      "properties": {
        "name": "Lidl"
      },
      "geometry": {
        "type": "Point",
        "coordinates": [
          5.84298,
          49.55932
        ]
      }
    },
    {
      "type": "Feature",
      "properties": {
        "name": "ALDI"
      },
      "geometry": {
        "type": "Point",
        "coordinates": [
          5.840577,
          49.558356
        ]
      }
    },
    {
      "type": "Feature",
      "properties": {
        "name": "Shop n Go Delhaize Belvaux"
      },
      "geometry": {
        "type": "Point",
        "coordinates": [
          5.932839,
          49.511188
        ]
      }
    },
    {
      "type": "Feature",
      "properties": {
        "name": "Smatch Soleuvre"
      },
      "geometry": {
        "type": "Point",
        "coordinates": [
          5.92174,
          49.522186
        ]
      }
    },
    {
      "type": "Feature",
      "properties": {
        "name": "Lidl"
      },
      "geometry": {
        "type": "Point",
        "coordinates": [
          5.910002,
          49.520281
        ]
      }
    },
    {
      "type": "Feature",
      "properties": {
        "name": "Profilux S.a."
      },
      "geometry": {
        "type": "Point",
        "coordinates": [
          5.920964,
          49.522551
        ]
      }
    },
    {
      "type": "Feature",
      "properties": {
        "name": "MyAuchan Oberkorn"
      },
      "geometry": {
        "type": "Point",
        "coordinates": [
          5.910521,
          49.520878
        ]
      }
    },
    {
      "type": "Feature",
      "properties": {
        "name": "GRAND MARCHÉ BIO"
      },
      "geometry": {
        "type": "Point",
        "coordinates": [
          5.811696,
          49.625287
        ]
      }
    },
    {
      "type": "Feature",
      "properties": {
        "name": "La Vie Claire"
      },
      "geometry": {
        "type": "Point",
        "coordinates": [
          5.811453,
          49.625119
        ]
      }
    },
    {
      "type": "Feature",
      "properties": {
        "name": "Grand Frais Messancy"
      },
      "geometry": {
        "type": "Point",
        "coordinates": [
          5.809877,
          49.626052
        ]
      }
    },
    {
      "type": "Feature",
      "properties": {
        "name": "Supeco Mont-Saint-Martin"
      },
      "geometry": {
        "type": "Point",
        "coordinates": [
          5.808782,
          49.546941
        ]
      }
    },
    {
      "type": "Feature",
      "properties": {
        "name": "Auchan"
      },
      "geometry": {
        "type": "Point",
        "coordinates": [
          5.80078,
          49.5438
        ]
      }
    },
    {
      "type": "Feature",
      "properties": {
        "name": "Shop & Go Rodange"
      },
      "geometry": {
        "type": "Point",
        "coordinates": [
          5.815877,
          49.541992
        ]
      }
    },
    {
      "type": "Feature",
      "properties": {
        "name": "Luc"
      },
      "geometry": {
        "type": "Point",
        "coordinates": [
          5.816596,
          49.542222
        ]
      }
    },
    {
      "type": "Feature",
      "properties": {
        "name": "Grupo Celeste | SUPERMARCHÉ"
      },
      "geometry": {
        "type": "Point",
        "coordinates": [
          5.972436,
          49.510437
        ]
      }
    },
    {
      "type": "Feature",
      "properties": {
        "name": "Balkes market"
      },
      "geometry": {
        "type": "Point",
        "coordinates": [
          5.974985,
          49.508436
        ]
      }
    },
    {
      "type": "Feature",
      "properties": {
        "name": "Smatch Esch-sur-Alzette"
      },
      "geometry": {
        "type": "Point",
        "coordinates": [
          5.970147,
          49.504908
        ]
      }
    },
    {
      "type": "Feature",
      "properties": {
        "name": "La Salière"
      },
      "geometry": {
        "type": "Point",
        "coordinates": [
          5.820127,
          49.706961
        ]
      }
    },
    {
      "type": "Feature",
      "properties": {
        "name": "Epicerie Wagner Liliane"
      },
      "geometry": {
        "type": "Point",
        "coordinates": [
          5.840393,
          49.725852
        ]
      }
    },
    {
      "type": "Feature",
      "properties": {
        "name": "Lidl"
      },
      "geometry": {
        "type": "Point",
        "coordinates": [
          5.794937,
          49.540226
        ]
      }
    },
    {
      "type": "Feature",
      "properties": {
        "name": "Cactus Resuma"
      },
      "geometry": {
        "type": "Point",
        "coordinates": [
          5.958346,
          49.645226
        ]
      }
    },
    {
      "type": "Feature",
      "properties": {
        "name": "Cactus Windhof"
      },
      "geometry": {
        "type": "Point",
        "coordinates": [
          5.957731,
          49.646351
        ]
      }
    },
    {
      "type": "Feature",
      "properties": {
        "name": "Lidl"
      },
      "geometry": {
        "type": "Point",
        "coordinates": [
          5.956352,
          49.647161
        ]
      }
    },
    {
      "type": "Feature",
      "properties": {
        "name": "Naturata Meyers-Haff"
      },
      "geometry": {
        "type": "Point",
        "coordinates": [
          5.956246,
          49.647907
        ]
      }
    },
    {
      "type": "Feature",
      "properties": {
        "name": "ItalGrossPoint"
      },
      "geometry": {
        "type": "Point",
        "coordinates": [
          5.963045,
          49.647276
        ]
      }
    },
    {
      "type": "Feature",
      "properties": {
        "name": "Shop n Go Delhaize Capellen"
      },
      "geometry": {
        "type": "Point",
        "coordinates": [
          5.970019,
          49.63745
        ]
      }
    },
    {
      "type": "Feature",
      "properties": {
        "name": "Gutt Drauf"
      },
      "geometry": {
        "type": "Point",
        "coordinates": [
          5.931945,
          49.648823
        ]
      }
    },
    {
      "type": "Feature",
      "properties": {
        "name": "Cactus Esch/Lallange"
      },
      "geometry": {
        "type": "Point",
        "coordinates": [
          5.989107,
          49.504604
        ]
      }
    },
    {
      "type": "Feature",
      "properties": {
        "name": "Protein System"
      },
      "geometry": {
        "type": "Point",
        "coordinates": [
          5.926019,
          49.661315
        ]
      }
    },
    {
      "type": "Feature",
      "properties": {
        "name": "Lidl"
      },
      "geometry": {
        "type": "Point",
        "coordinates": [
          5.960776,
          49.479844
        ]
      }
    },
    {
      "type": "Feature",
      "properties": {
        "name": "A DESPENSA"
      },
      "geometry": {
        "type": "Point",
        "coordinates": [
          5.959234,
          49.477709
        ]
      }
    },
    {
      "type": "Feature",
      "properties": {
        "name": "Maison TOTI"
      },
      "geometry": {
        "type": "Point",
        "coordinates": [
          5.958966,
          49.476828
        ]
      }
    },
    {
      "type": "Feature",
      "properties": {
        "name": "Carrefour Market Audun-Le-Tiche"
      },
      "geometry": {
        "type": "Point",
        "coordinates": [
          5.956912,
          49.476422
        ]
      }
    },
    {
      "type": "Feature",
      "properties": {
        "name": "S D A"
      },
      "geometry": {
        "type": "Point",
        "coordinates": [
          5.956571,
          49.47618
        ]
      }
    },
    {
      "type": "Feature",
      "properties": {
        "name": "ALDI"
      },
      "geometry": {
        "type": "Point",
        "coordinates": [
          5.956421,
          49.474727
        ]
      }
    },
    {
      "type": "Feature",
      "properties": {
        "name": "BioButtek Wilhelm"
      },
      "geometry": {
        "type": "Point",
        "coordinates": [
          5.980739,
          49.643604
        ]
      }
    },
    {
      "type": "Feature",
      "properties": {
        "name": "Vendita prodotti gastronomici italiani"
      },
      "geometry": {
        "type": "Point",
        "coordinates": [
          5.982093,
          49.621771
        ]
      }
    },
    {
      "type": "Feature",
      "properties": {
        "name": "Mëllech Tankstell"
      },
      "geometry": {
        "type": "Point",
        "coordinates": [
          5.910149,
          49.754926
        ]
      }
    },
    {
      "type": "Feature",
      "properties": {
        "name": "Cactus Redange"
      },
      "geometry": {
        "type": "Point",
        "coordinates": [
          5.897076,
          49.771737
        ]
      }
    },
    {
      "type": "Feature",
      "properties": {
        "name": "Proxy Delhaize Bettborn (Préizerdaul)"
      },
      "geometry": {
        "type": "Point",
        "coordinates": [
          5.93801,
          49.795126
        ]
      }
    },
    {
      "type": "Feature",
      "properties": {
        "name": "Letz Confiseur"
      },
      "geometry": {
        "type": "Point",
        "coordinates": [
          5.848004,
          49.919866
        ]
      }
    },
    {
      "type": "Feature",
      "properties": {
        "name": "Épicerie beim Nicole"
      },
      "geometry": {
        "type": "Point",
        "coordinates": [
          5.814507,
          49.887595
        ]
      }
    },
    {
      "type": "Feature",
      "properties": {
        "name": "Ali-eischen"
      },
      "geometry": {
        "type": "Point",
        "coordinates": [
          5.816147,
          49.592608
        ]
      }
    },
    {
      "type": "Feature",
      "properties": {
        "name": "Shop n Go Delhaize Wincrange"
      },
      "geometry": {
        "type": "Point",
        "coordinates": [
          5.914628,
          50.053856
        ]
      }
    },
    {
      "type": "Feature",
      "properties": {
        "name": "Lokal Produkter Wëntger"
      },
      "geometry": {
        "type": "Point",
        "coordinates": [
          5.923243,
          50.060482
        ]
      }
    },
    {
      "type": "Feature",
      "properties": {
        "name": "Arovo sarl"
      },
      "geometry": {
        "type": "Point",
        "coordinates": [
          5.842995,
          50.012254
        ]
      }
    },
    {
      "type": "Feature",
      "properties": {
        "name": "Boisson Manternach"
      },
      "geometry": {
        "type": "Point",
        "coordinates": [
          5.840994,
          50.009859
        ]
      }
    },
    {
      "type": "Feature",
      "properties": {
        "name": "ALDI Pommerloch"
      },
      "geometry": {
        "type": "Point",
        "coordinates": [
          5.860762,
          49.960641
        ]
      }
    },
    {
      "type": "Feature",
      "properties": {
        "name": "Lidl"
      },
      "geometry": {
        "type": "Point",
        "coordinates": [
          5.860208,
          49.962137
        ]
      }
    },
    {
      "type": "Feature",
      "properties": {
        "name": "Colruyt Pommerloch"
      },
      "geometry": {
        "type": "Point",
        "coordinates": [
          5.860278,
          49.964123
        ]
      }
    },
    {
      "type": "Feature",
      "properties": {
        "name": "Shop n Go Delhaize Cristal Palace Pommerloch"
      },
      "geometry": {
        "type": "Point",
        "coordinates": [
          5.859676,
          49.962468
        ]
      }
    },
    {
      "type": "Feature",
      "properties": {
        "name": "Supermarket Delhaize"
      },
      "geometry": {
        "type": "Point",
        "coordinates": [
          5.85804,
          49.962693
        ]
      }
    },
    {
      "type": "Feature",
      "properties": {
        "name": "Smatch Wiltz"
      },
      "geometry": {
        "type": "Point",
        "coordinates": [
          5.931234,
          49.968255
        ]
      }
    },
    {
      "type": "Feature",
      "properties": {
        "name": "Cactus Pétange"
      },
      "geometry": {
        "type": "Point",
        "coordinates": [
          5.86744,
          49.5558
        ]
      }
    },
    {
      "type": "Feature",
      "properties": {
        "name": "Tendance Terroir"
      },
      "geometry": {
        "type": "Point",
        "coordinates": [
          5.85351,
          49.552277
        ]
      }
    },
    {
      "type": "Feature",
      "properties": {
        "name": "De Kuerbuttek"
      },
      "geometry": {
        "type": "Point",
        "coordinates": [
          5.86788,
          49.556277
        ]
      }
    },
    {
      "type": "Feature",
      "properties": {
        "name": "Lidl"
      },
      "geometry": {
        "type": "Point",
        "coordinates": [
          5.868065,
          49.556635
        ]
      }
    },
    {
      "type": "Feature",
      "properties": {
        "name": "Le Cabas du Moulin"
      },
      "geometry": {
        "type": "Point",
        "coordinates": [
          5.952232,
          50.191763
        ]
      }
    },
    {
      "type": "Feature",
      "properties": {
        "name": "Abdrim"
      },
      "geometry": {
        "type": "Point",
        "coordinates": [
          5.953289,
          50.190913
        ]
      }
    },
    {
      "type": "Feature",
      "properties": {
        "name": "Proxy Delhaize Bohey"
      },
      "geometry": {
        "type": "Point",
        "coordinates": [
          5.843611,
          49.97552
        ]
      }
    },
    {
      "type": "Feature",
      "properties": {
        "name": "Alcool boisson"
      },
      "geometry": {
        "type": "Point",
        "coordinates": [
          5.844152,
          49.975291
        ]
      }
    },
    {
      "type": "Feature",
      "properties": {
        "name": "L'Hakim s.ar.l."
      },
      "geometry": {
        "type": "Point",
        "coordinates": [
          5.879336,
          49.557524
        ]
      }
    },
    {
      "type": "Feature",
      "properties": {
        "name": "Kuerbuttek (De)"
      },
      "geometry": {
        "type": "Point",
        "coordinates": [
          5.871084,
          49.558929
        ]
      }
    },
    {
      "type": "Feature",
      "properties": {
        "name": "Paquay Francois-Joseph, Alimentation"
      },
      "geometry": {
        "type": "Point",
        "coordinates": [
          5.918953,
          50.283064
        ]
      }
    },
    {
      "type": "Feature",
      "properties": {
        "name": "Mag Es"
      },
      "geometry": {
        "type": "Point",
        "coordinates": [
          5.914908,
          50.28438
        ]
      }
    },
    {
      "type": "Feature",
      "properties": {
        "name": "Carrefour"
      },
      "geometry": {
        "type": "Point",
        "coordinates": [
          5.919221,
          50.28333
        ]
      }
    },
    {
      "type": "Feature",
      "properties": {
        "name": "Spar Gouvy"
      },
      "geometry": {
        "type": "Point",
        "coordinates": [
          5.954649,
          50.18971
        ]
      }
    },
    {
      "type": "Feature",
      "properties": {
        "name": "Primafood SA"
      },
      "geometry": {
        "type": "Point",
        "coordinates": [
          5.933056,
          49.562222
        ]
      }
    },
    {
      "type": "Feature",
      "properties": {
        "name": "Dépot Moulins de Kleinbettingen"
      },
      "geometry": {
        "type": "Point",
        "coordinates": [
          5.932691,
          49.569045
        ]
      }
    },
    {
      "type": "Feature",
      "properties": {
        "name": "Super Price"
      },
      "geometry": {
        "type": "Point",
        "coordinates": [
          5.92957,
          49.56197
        ]
      }
    },
    {
      "type": "Feature",
      "properties": {
        "name": "Marius Luxembourg"
      },
      "geometry": {
        "type": "Point",
        "coordinates": [
          5.930134,
          49.560089
        ]
      }
    },
    {
      "type": "Feature",
      "properties": {
        "name": "Ferme Pretemer Haff"
      },
      "geometry": {
        "type": "Point",
        "coordinates": [
          5.970226,
          49.562577
        ]
      }
    },
    {
      "type": "Feature",
      "properties": {
        "name": "Proxy Delhaize Dippach"
      },
      "geometry": {
        "type": "Point",
        "coordinates": [
          5.973505,
          49.584561
        ]
      }
    },
    {
      "type": "Feature",
      "properties": {
        "name": "Carrefour"
      },
      "geometry": {
        "type": "Point",
        "coordinates": [
          5.797834,
          50.283667
        ]
      }
    },
    {
      "type": "Feature",
      "properties": {
        "name": "SPAR"
      },
      "geometry": {
        "type": "Point",
        "coordinates": [
          5.9161,
          50.289288
        ]
      }
    },
    {
      "type": "Feature",
      "properties": {
        "name": "Disfrais"
      },
      "geometry": {
        "type": "Point",
        "coordinates": [
          5.916114,
          50.289256
        ]
      }
    },
    {
      "type": "Feature",
      "properties": {
        "name": "Supercaddy SA"
      },
      "geometry": {
        "type": "Point",
        "coordinates": [
          5.91607,
          50.28915
        ]
      }
    },
    {
      "type": "Feature",
      "properties": {
        "name": "Ltl - (la Theriaque Luxembourgeoise) S.a."
      },
      "geometry": {
        "type": "Point",
        "coordinates": [
          5.908036,
          49.538132
        ]
      }
    },
    {
      "type": "Feature",
      "properties": {
        "name": "ALDI"
      },
      "geometry": {
        "type": "Point",
        "coordinates": [
          5.921391,
          50.286309
        ]
      }
    },
    {
      "type": "Feature",
      "properties": {
        "name": "Poncelet / Cédric"
      },
      "geometry": {
        "type": "Point",
        "coordinates": [
          5.835071,
          50.355766
        ]
      }
    },
    {
      "type": "Feature",
      "properties": {
        "name": "CP SHOP CENTER"
      },
      "geometry": {
        "type": "Point",
        "coordinates": [
          5.834996,
          50.355724
        ]
      }
    },
    {
      "type": "Feature",
      "properties": {
        "name": "Concierge Taylor Made by Loredana Tricca"
      },
      "geometry": {
        "type": "Point",
        "coordinates": [
          5.979899,
          49.587946
        ]
      }
    },
    {
      "type": "Feature",
      "properties": {
        "name": "Biohaff Witry"
      },
      "geometry": {
        "type": "Point",
        "coordinates": [
          5.981351,
          49.590878
        ]
      }
    },
    {
      "type": "Feature",
      "properties": {
        "name": "Boulangerie Et Market Shop"
      },
      "geometry": {
        "type": "Point",
        "coordinates": [
          5.931101,
          50.394601
        ]
      }
    },
    {
      "type": "Feature",
      "properties": {
        "name": "Proxy Market"
      },
      "geometry": {
        "type": "Point",
        "coordinates": [
          5.931211,
          50.394652
        ]
      }
    },
    {
      "type": "Feature",
      "properties": {
        "name": "Carrefour"
      },
      "geometry": {
        "type": "Point",
        "coordinates": [
          5.869729,
          50.372752
        ]
      }
    },
    {
      "type": "Feature",
      "properties": {
        "name": "Lu P'tit Botique"
      },
      "geometry": {
        "type": "Point",
        "coordinates": [
          5.931589,
          50.392076
        ]
      }
    },
    {
      "type": "Feature",
      "properties": {
        "name": "Gb Partner"
      },
      "geometry": {
        "type": "Point",
        "coordinates": [
          5.936291,
          50.396697
        ]
      }
    },
    {
      "type": "Feature",
      "properties": {
        "name": "Intermarche Spa"
      },
      "geometry": {
        "type": "Point",
        "coordinates": [
          5.873265,
          50.491344
        ]
      }
    },
    {
      "type": "Feature",
      "properties": {
        "name": "Kim Saigon"
      },
      "geometry": {
        "type": "Point",
        "coordinates": [
          5.867265,
          50.491821
        ]
      }
    },
    {
      "type": "Feature",
      "properties": {
        "name": "Idm"
      },
      "geometry": {
        "type": "Point",
        "coordinates": [
          5.900268,
          50.496792
        ]
      }
    },
    {
      "type": "Feature",
      "properties": {
        "name": "Carrefour"
      },
      "geometry": {
        "type": "Point",
        "coordinates": [
          5.862147,
          50.491687
        ]
      }
    },
    {
      "type": "Feature",
      "properties": {
        "name": "Demain - L'épicerie"
      },
      "geometry": {
        "type": "Point",
        "coordinates": [
          5.861675,
          50.492453
        ]
      }
    },
    {
      "type": "Feature",
      "properties": {
        "name": "Au Circuit Court"
      },
      "geometry": {
        "type": "Point",
        "coordinates": [
          5.845776,
          50.412603
        ]
      }
    },
    {
      "type": "Feature",
      "properties": {
        "name": "Lidl"
      },
      "geometry": {
        "type": "Point",
        "coordinates": [
          5.84454,
          50.48966
        ]
      }
    },
    {
      "type": "Feature",
      "properties": {
        "name": "Delhaize Spa"
      },
      "geometry": {
        "type": "Point",
        "coordinates": [
          5.843943,
          50.4889
        ]
      }
    },
    {
      "type": "Feature",
      "properties": {
        "name": "ALDI"
      },
      "geometry": {
        "type": "Point",
        "coordinates": [
          5.847464,
          50.489825
        ]
      }
    },
    {
      "type": "Feature",
      "properties": {
        "name": "Shop & Go"
      },
      "geometry": {
        "type": "Point",
        "coordinates": [
          5.852555,
          50.491279
        ]
      }
    },
    {
      "type": "Feature",
      "properties": {
        "name": "Le Petit Polleur"
      },
      "geometry": {
        "type": "Point",
        "coordinates": [
          5.884113,
          50.540429
        ]
      }
    },
    {
      "type": "Feature",
      "properties": {
        "name": "Délices d' Asie"
      },
      "geometry": {
        "type": "Point",
        "coordinates": [
          5.916069,
          50.518429
        ]
      }
    },
    {
      "type": "Feature",
      "properties": {
        "name": "Colruyt"
      },
      "geometry": {
        "type": "Point",
        "coordinates": [
          5.907623,
          50.514953
        ]
      }
    },
    {
      "type": "Feature",
      "properties": {
        "name": "Collect&Go"
      },
      "geometry": {
        "type": "Point",
        "coordinates": [
          5.907514,
          50.514812
        ]
      }
    },
    {
      "type": "Feature",
      "properties": {
        "name": "Proxy Delhaize Tiege (Jalhay)"
      },
      "geometry": {
        "type": "Point",
        "coordinates": [
          5.917739,
          50.516473
        ]
      }
    },
    {
      "type": "Feature",
      "properties": {
        "name": "L'Âme en Dinette"
      },
      "geometry": {
        "type": "Point",
        "coordinates": [
          5.895623,
          50.509754
        ]
      }
    },
    {
      "type": "Feature",
      "properties": {
        "name": "Colson / Laurent"
      },
      "geometry": {
        "type": "Point",
        "coordinates": [
          5.800214,
          50.487466
        ]
      }
    },
    {
      "type": "Feature",
      "properties": {
        "name": "Proxy Delhaize Andrimont"
      },
      "geometry": {
        "type": "Point",
        "coordinates": [
          5.869048,
          50.605177
        ]
      }
    },
    {
      "type": "Feature",
      "properties": {
        "name": "Free Market"
      },
      "geometry": {
        "type": "Point",
        "coordinates": [
          5.874415,
          50.595974
        ]
      }
    },
    {
      "type": "Feature",
      "properties": {
        "name": "R & S entreprise"
      },
      "geometry": {
        "type": "Point",
        "coordinates": [
          5.872968,
          50.59649
        ]
      }
    },
    {
      "type": "Feature",
      "properties": {
        "name": "Marion/J."
      },
      "geometry": {
        "type": "Point",
        "coordinates": [
          5.802204,
          50.522184
        ]
      }
    },
    {
      "type": "Feature",
      "properties": {
        "name": "louis delhaize"
      },
      "geometry": {
        "type": "Point",
        "coordinates": [
          5.839704,
          50.578983
        ]
      }
    },
    {
      "type": "Feature",
      "properties": {
        "name": "Lidl Verviers"
      },
      "geometry": {
        "type": "Point",
        "coordinates": [
          5.841544,
          50.58177
        ]
      }
    },
    {
      "type": "Feature",
      "properties": {
        "name": "Bio-Planet"
      },
      "geometry": {
        "type": "Point",
        "coordinates": [
          5.847839,
          50.581714
        ]
      }
    },
    {
      "type": "Feature",
      "properties": {
        "name": "Carrefour market Verviers"
      },
      "geometry": {
        "type": "Point",
        "coordinates": [
          5.847611,
          50.584765
        ]
      }
    },
    {
      "type": "Feature",
      "properties": {
        "name": "Shop express"
      },
      "geometry": {
        "type": "Point",
        "coordinates": [
          5.849144,
          50.584788
        ]
      }
    },
    {
      "type": "Feature",
      "properties": {
        "name": "ALDI"
      },
      "geometry": {
        "type": "Point",
        "coordinates": [
          5.810686,
          50.569721
        ]
      }
    },
    {
      "type": "Feature",
      "properties": {
        "name": "Delhaize Pepinster"
      },
      "geometry": {
        "type": "Point",
        "coordinates": [
          5.809384,
          50.569507
        ]
      }
    },
    {
      "type": "Feature",
      "properties": {
        "name": "Delhaize Verviers"
      },
      "geometry": {
        "type": "Point",
        "coordinates": [
          5.847935,
          50.588211
        ]
      }
    },
    {
      "type": "Feature",
      "properties": {
        "name": "La Petite Epicerie Henri-Chapelle"
      },
      "geometry": {
        "type": "Point",
        "coordinates": [
          5.93181,
          50.677099
        ]
      }
    },
    {
      "type": "Feature",
      "properties": {
        "name": "Okay Aubel"
      },
      "geometry": {
        "type": "Point",
        "coordinates": [
          5.854798,
          50.691506
        ]
      }
    },
    {
      "type": "Feature",
      "properties": {
        "name": "Carrefour market AUBEL"
      },
      "geometry": {
        "type": "Point",
        "coordinates": [
          5.853863,
          50.693676
        ]
      }
    },
    {
      "type": "Feature",
      "properties": {
        "name": "ALDI"
      },
      "geometry": {
        "type": "Point",
        "coordinates": [
          5.853583,
          50.693648
        ]
      }
    },
    {
      "type": "Feature",
      "properties": {
        "name": "Harmony / Home sprl"
      },
      "geometry": {
        "type": "Point",
        "coordinates": [
          5.810095,
          50.545119
        ]
      }
    },
    {
      "type": "Feature",
      "properties": {
        "name": "Les Comptoirs de Maureen"
      },
      "geometry": {
        "type": "Point",
        "coordinates": [
          5.803344,
          50.566234
        ]
      }
    },
    {
      "type": "Feature",
      "properties": {
        "name": "Alimentation Generale"
      },
      "geometry": {
        "type": "Point",
        "coordinates": [
          5.803333,
          50.566335
        ]
      }
    },
    {
      "type": "Feature",
      "properties": {
        "name": "Épicerie Henry"
      },
      "geometry": {
        "type": "Point",
        "coordinates": [
          5.804426,
          50.56744
        ]
      }
    },
    {
      "type": "Feature",
      "properties": {
        "name": "Delhaize Battice"
      },
      "geometry": {
        "type": "Point",
        "coordinates": [
          5.827237,
          50.645599
        ]
      }
    },
    {
      "type": "Feature",
      "properties": {
        "name": "Vidéokay Battice"
      },
      "geometry": {
        "type": "Point",
        "coordinates": [
          5.824067,
          50.647267
        ]
      }
    },
    {
      "type": "Feature",
      "properties": {
        "name": "Targ Battice"
      },
      "geometry": {
        "type": "Point",
        "coordinates": [
          5.820315,
          50.650276
        ]
      }
    },
    {
      "type": "Feature",
      "properties": {
        "name": "Nedosa"
      },
      "geometry": {
        "type": "Point",
        "coordinates": [
          5.813104,
          50.648804
        ]
      }
    },
    {
      "type": "Feature",
      "properties": {
        "name": "Lidl Herve"
      },
      "geometry": {
        "type": "Point",
        "coordinates": [
          5.81125,
          50.647117
        ]
      }
    },
    {
      "type": "Feature",
      "properties": {
        "name": "Boucherie soiron"
      },
      "geometry": {
        "type": "Point",
        "coordinates": [
          5.817144,
          50.656346
        ]
      }
    },
    {
      "type": "Feature",
      "properties": {
        "name": "Salman & Brothers Day and Night shop"
      },
      "geometry": {
        "type": "Point",
        "coordinates": [
          5.861951,
          50.592426
        ]
      }
    },
    {
      "type": "Feature",
      "properties": {
        "name": "Mathieu shop"
      },
      "geometry": {
        "type": "Point",
        "coordinates": [
          5.865525,
          50.592932
        ]
      }
    },
    {
      "type": "Feature",
      "properties": {
        "name": "Vervîcoop"
      },
      "geometry": {
        "type": "Point",
        "coordinates": [
          5.866928,
          50.592147
        ]
      }
    },
    {
      "type": "Feature",
      "properties": {
        "name": "TS diffuison"
      },
      "geometry": {
        "type": "Point",
        "coordinates": [
          5.861773,
          50.593124
        ]
      }
    },
    {
      "type": "Feature",
      "properties": {
        "name": "Gougle & gougol"
      },
      "geometry": {
        "type": "Point",
        "coordinates": [
          5.861773,
          50.593124
        ]
      }
    },
    {
      "type": "Feature",
      "properties": {
        "name": "Сім23"
      },
      "geometry": {
        "type": "Point",
        "coordinates": [
          5.861773,
          50.593124
        ]
      }
    },
    {
      "type": "Feature",
      "properties": {
        "name": "Gugl vs Huhl"
      },
      "geometry": {
        "type": "Point",
        "coordinates": [
          5.861773,
          50.593124
        ]
      }
    },
    {
      "type": "Feature",
      "properties": {
        "name": "Spirit & food"
      },
      "geometry": {
        "type": "Point",
        "coordinates": [
          5.861773,
          50.593124
        ]
      }
    },
    {
      "type": "Feature",
      "properties": {
        "name": "Pain au levain Generation Verviers"
      },
      "geometry": {
        "type": "Point",
        "coordinates": [
          5.866069,
          50.593088
        ]
      }
    },
    {
      "type": "Feature",
      "properties": {
        "name": "Kanan Alimentation"
      },
      "geometry": {
        "type": "Point",
        "coordinates": [
          5.867871,
          50.590327
        ]
      }
    },
    {
      "type": "Feature",
      "properties": {
        "name": "Carrefour express Verviers"
      },
      "geometry": {
        "type": "Point",
        "coordinates": [
          5.860069,
          50.592709
        ]
      }
    },
    {
      "type": "Feature",
      "properties": {
        "name": "Il Negozio"
      },
      "geometry": {
        "type": "Point",
        "coordinates": [
          5.855172,
          50.587086
        ]
      }
    },
    {
      "type": "Feature",
      "properties": {
        "name": "Chez Lulu"
      },
      "geometry": {
        "type": "Point",
        "coordinates": [
          5.86466,
          50.65373
        ]
      }
    },
    {
      "type": "Feature",
      "properties": {
        "name": "Greg & Geo"
      },
      "geometry": {
        "type": "Point",
        "coordinates": [
          5.864694,
          50.653728
        ]
      }
    },
    {
      "type": "Feature",
      "properties": {
        "name": "Lidl Dison"
      },
      "geometry": {
        "type": "Point",
        "coordinates": [
          5.85198,
          50.59955
        ]
      }
    },
    {
      "type": "Feature",
      "properties": {
        "name": "Mi Gross"
      },
      "geometry": {
        "type": "Point",
        "coordinates": [
          5.854392,
          50.596229
        ]
      }
    },
    {
      "type": "Feature",
      "properties": {
        "name": "spirit & food"
      },
      "geometry": {
        "type": "Point",
        "coordinates": [
          5.859092,
          50.59795
        ]
      }
    },
    {
      "type": "Feature",
      "properties": {
        "name": "Bm"
      },
      "geometry": {
        "type": "Point",
        "coordinates": [
          5.854975,
          50.621945
        ]
      }
    },
    {
      "type": "Feature",
      "properties": {
        "name": "B.r.c. Sa"
      },
      "geometry": {
        "type": "Point",
        "coordinates": [
          5.869974,
          50.638631
        ]
      }
    },
    {
      "type": "Feature",
      "properties": {
        "name": "Entre Serre et Terre - Légumes bio"
      },
      "geometry": {
        "type": "Point",
        "coordinates": [
          5.912135,
          50.496711
        ]
      }
    },
    {
      "type": "Feature",
      "properties": {
        "name": "Pain au levain Generation Aubel"
      },
      "geometry": {
        "type": "Point",
        "coordinates": [
          5.858347,
          50.706364
        ]
      }
    },
    {
      "type": "Feature",
      "properties": {
        "name": "Intermarché Dison"
      },
      "geometry": {
        "type": "Point",
        "coordinates": [
          5.856639,
          50.60631
        ]
      }
    },
    {
      "type": "Feature",
      "properties": {
        "name": "ALDI"
      },
      "geometry": {
        "type": "Point",
        "coordinates": [
          5.855854,
          50.60737
        ]
      }
    },
    {
      "type": "Feature",
      "properties": {
        "name": "Proxy Delhaize Montzen"
      },
      "geometry": {
        "type": "Point",
        "coordinates": [
          5.963135,
          50.708842
        ]
      }
    },
    {
      "type": "Feature",
      "properties": {
        "name": "Madame Apéro"
      },
      "geometry": {
        "type": "Point",
        "coordinates": [
          5.957297,
          50.728054
        ]
      }
    },
    {
      "type": "Feature",
      "properties": {
        "name": "Zum gelben Zirkuswagen"
      },
      "geometry": {
        "type": "Point",
        "coordinates": [
          5.978596,
          50.715402
        ]
      }
    },
    {
      "type": "Feature",
      "properties": {
        "name": "ZUMSO Market"
      },
      "geometry": {
        "type": "Point",
        "coordinates": [
          5.8549,
          50.594492
        ]
      }
    },
    {
      "type": "Feature",
      "properties": {
        "name": "Sayema Alimentation"
      },
      "geometry": {
        "type": "Point",
        "coordinates": [
          5.854893,
          50.593561
        ]
      }
    },
    {
      "type": "Feature",
      "properties": {
        "name": "Bilal Super Market"
      },
      "geometry": {
        "type": "Point",
        "coordinates": [
          5.85523,
          50.593362
        ]
      }
    },
    {
      "type": "Feature",
      "properties": {
        "name": "Verviers shop"
      },
      "geometry": {
        "type": "Point",
        "coordinates": [
          5.855255,
          50.593309
        ]
      }
    },
    {
      "type": "Feature",
      "properties": {
        "name": "Delhaize Welkenraedt"
      },
      "geometry": {
        "type": "Point",
        "coordinates": [
          5.970782,
          50.662263
        ]
      }
    },
    {
      "type": "Feature",
      "properties": {
        "name": "Chatar Market SRL"
      },
      "geometry": {
        "type": "Point",
        "coordinates": [
          5.854315,
          50.593594
        ]
      }
    },
    {
      "type": "Feature",
      "properties": {
        "name": "MOGA DISHO MARKET"
      },
      "geometry": {
        "type": "Point",
        "coordinates": [
          5.85453,
          50.593424
        ]
      }
    },
    {
      "type": "Feature",
      "properties": {
        "name": "BIJ Ons Natuurlijk Gulpen"
      },
      "geometry": {
        "type": "Point",
        "coordinates": [
          5.859172,
          50.791867
        ]
      }
    },
    {
      "type": "Feature",
      "properties": {
        "name": "Buurtwinkel Viele"
      },
      "geometry": {
        "type": "Point",
        "coordinates": [
          5.963849,
          50.787399
        ]
      }
    },
    {
      "type": "Feature",
      "properties": {
        "name": "Attent de oude brouwerij"
      },
      "geometry": {
        "type": "Point",
        "coordinates": [
          5.923593,
          50.795239
        ]
      }
    },
    {
      "type": "Feature",
      "properties": {
        "name": "OKay"
      },
      "geometry": {
        "type": "Point",
        "coordinates": [
          5.985922,
          50.658956
        ]
      }
    },
    {
      "type": "Feature",
      "properties": {
        "name": "ALDI"
      },
      "geometry": {
        "type": "Point",
        "coordinates": [
          5.972659,
          50.670359
        ]
      }
    },
    {
      "type": "Feature",
      "properties": {
        "name": "Сім23"
      },
      "geometry": {
        "type": "Point",
        "coordinates": [
          5.859698,
          50.593656
        ]
      }
    },
    {
      "type": "Feature",
      "properties": {
        "name": "louis delhaize"
      },
      "geometry": {
        "type": "Point",
        "coordinates": [
          5.874095,
          50.595017
        ]
      }
    },
    {
      "type": "Feature",
      "properties": {
        "name": "Lidl"
      },
      "geometry": {
        "type": "Point",
        "coordinates": [
          5.87364,
          50.59511
        ]
      }
    },
    {
      "type": "Feature",
      "properties": {
        "name": "H-FOOD"
      },
      "geometry": {
        "type": "Point",
        "coordinates": [
          5.873187,
          50.595008
        ]
      }
    },
    {
      "type": "Feature",
      "properties": {
        "name": "Groene Vreugde"
      },
      "geometry": {
        "type": "Point",
        "coordinates": [
          5.900727,
          50.8248
        ]
      }
    },
    {
      "type": "Feature",
      "properties": {
        "name": "PLUS Kleijnen Gulpen"
      },
      "geometry": {
        "type": "Point",
        "coordinates": [
          5.893286,
          50.81607
        ]
      }
    },
    {
      "type": "Feature",
      "properties": {
        "name": "Original Andalucia Enkel Webshop"
      },
      "geometry": {
        "type": "Point",
        "coordinates": [
          5.891538,
          50.81307
        ]
      }
    },
    {
      "type": "Feature",
      "properties": {
        "name": "Eyserhalte"
      },
      "geometry": {
        "type": "Point",
        "coordinates": [
          5.924025,
          50.822252
        ]
      }
    },
    {
      "type": "Feature",
      "properties": {
        "name": "Kaas- en Boterhandel Boor V.O.F."
      },
      "geometry": {
        "type": "Point",
        "coordinates": [
          5.865338,
          50.890308
        ]
      }
    },
    {
      "type": "Feature",
      "properties": {
        "name": "Plus Tim & Joyce Janssen Klimmen"
      },
      "geometry": {
        "type": "Point",
        "coordinates": [
          5.878815,
          50.878135
        ]
      }
    },
    {
      "type": "Feature",
      "properties": {
        "name": "Jumbo"
      },
      "geometry": {
        "type": "Point",
        "coordinates": [
          5.884478,
          50.917372
        ]
      }
    },
    {
      "type": "Feature",
      "properties": {
        "name": "AH Europaplein"
      },
      "geometry": {
        "type": "Point",
        "coordinates": [
          5.857908,
          50.890135
        ]
      }
    },
    {
      "type": "Feature",
      "properties": {
        "name": "Collect&Go"
      },
      "geometry": {
        "type": "Point",
        "coordinates": [
          5.883313,
          50.585007
        ]
      }
    },
    {
      "type": "Feature",
      "properties": {
        "name": "Colruyt"
      },
      "geometry": {
        "type": "Point",
        "coordinates": [
          5.883427,
          50.584986
        ]
      }
    },
    {
      "type": "Feature",
      "properties": {
        "name": "La Petite Pêche"
      },
      "geometry": {
        "type": "Point",
        "coordinates": [
          5.887312,
          50.582991
        ]
      }
    },
    {
      "type": "Feature",
      "properties": {
        "name": "Jumbo"
      },
      "geometry": {
        "type": "Point",
        "coordinates": [
          5.833645,
          50.863634
        ]
      }
    },
    {
      "type": "Feature",
      "properties": {
        "name": "AH Irmengard Passage"
      },
      "geometry": {
        "type": "Point",
        "coordinates": [
          5.83408,
          50.865784
        ]
      }
    },
    {
      "type": "Feature",
      "properties": {
        "name": "Culitalia onlinewinkel"
      },
      "geometry": {
        "type": "Point",
        "coordinates": [
          5.831939,
          50.865441
        ]
      }
    },
    {
      "type": "Feature",
      "properties": {
        "name": "Vanilla & Beans"
      },
      "geometry": {
        "type": "Point",
        "coordinates": [
          5.833355,
          50.869777
        ]
      }
    },
    {
      "type": "Feature",
      "properties": {
        "name": "F. Kleijnen Holding B.V."
      },
      "geometry": {
        "type": "Point",
        "coordinates": [
          5.81654,
          50.871378
        ]
      }
    },
    {
      "type": "Feature",
      "properties": {
        "name": "Verse groente van eigen tuin"
      },
      "geometry": {
        "type": "Point",
        "coordinates": [
          5.883061,
          50.84647
        ]
      }
    },
    {
      "type": "Feature",
      "properties": {
        "name": "Beaumont"
      },
      "geometry": {
        "type": "Point",
        "coordinates": [
          5.814152,
          50.951298
        ]
      }
    },
    {
      "type": "Feature",
      "properties": {
        "name": "PLUS Welten"
      },
      "geometry": {
        "type": "Point",
        "coordinates": [
          5.969205,
          50.874459
        ]
      }
    },
    {
      "type": "Feature",
      "properties": {
        "name": "Bart's Bijenparadijs"
      },
      "geometry": {
        "type": "Point",
        "coordinates": [
          5.932218,
          50.878477
        ]
      }
    },
    {
      "type": "Feature",
      "properties": {
        "name": "SPAR express Heerlen Oost"
      },
      "geometry": {
        "type": "Point",
        "coordinates": [
          5.975737,
          50.875312
        ]
      }
    },
    {
      "type": "Feature",
      "properties": {
        "name": "Kaatje Jans"
      },
      "geometry": {
        "type": "Point",
        "coordinates": [
          5.795797,
          50.94928
        ]
      }
    },
    {
      "type": "Feature",
      "properties": {
        "name": "Lidl"
      },
      "geometry": {
        "type": "Point",
        "coordinates": [
          5.794705,
          50.949931
        ]
      }
    },
    {
      "type": "Feature",
      "properties": {
        "name": "AH Wethouder Sangersstraat"
      },
      "geometry": {
        "type": "Point",
        "coordinates": [
          5.79382,
          50.949956
        ]
      }
    },
    {
      "type": "Feature",
      "properties": {
        "name": "Heve Food"
      },
      "geometry": {
        "type": "Point",
        "coordinates": [
          5.79144,
          50.947982
        ]
      }
    },
    {
      "type": "Feature",
      "properties": {
        "name": "Sous Markt"
      },
      "geometry": {
        "type": "Point",
        "coordinates": [
          5.801332,
          50.940958
        ]
      }
    },
    {
      "type": "Feature",
      "properties": {
        "name": "Boerderijwinkel Keulen"
      },
      "geometry": {
        "type": "Point",
        "coordinates": [
          5.909136,
          50.958133
        ]
      }
    },
    {
      "type": "Feature",
      "properties": {
        "name": "PLUS Munstergeleen"
      },
      "geometry": {
        "type": "Point",
        "coordinates": [
          5.861409,
          50.975907
        ]
      }
    },
    {
      "type": "Feature",
      "properties": {
        "name": "Mit Sjmaak"
      },
      "geometry": {
        "type": "Point",
        "coordinates": [
          5.861061,
          50.97569
        ]
      }
    },
    {
      "type": "Feature",
      "properties": {
        "name": "Jumbo"
      },
      "geometry": {
        "type": "Point",
        "coordinates": [
          5.907725,
          50.949431
        ]
      }
    },
    {
      "type": "Feature",
      "properties": {
        "name": "Ruiter-Kramer V.O.F."
      },
      "geometry": {
        "type": "Point",
        "coordinates": [
          5.927075,
          50.975906
        ]
      }
    },
    {
      "type": "Feature",
      "properties": {
        "name": "Plus Van Wijnbergen"
      },
      "geometry": {
        "type": "Point",
        "coordinates": [
          5.796308,
          50.940767
        ]
      }
    },
    {
      "type": "Feature",
      "properties": {
        "name": "Jumbo"
      },
      "geometry": {
        "type": "Point",
        "coordinates": [
          5.79222,
          50.93802
        ]
      }
    },
    {
      "type": "Feature",
      "properties": {
        "name": "Les Consom'Acteurs de la Hoëgne"
      },
      "geometry": {
        "type": "Point",
        "coordinates": [
          5.957428,
          50.562458
        ]
      }
    },
    {
      "type": "Feature",
      "properties": {
        "name": "Proxy Delhaize Jalhay"
      },
      "geometry": {
        "type": "Point",
        "coordinates": [
          5.965418,
          50.558832
        ]
      }
    },
    {
      "type": "Feature",
      "properties": {
        "name": "PLUS Michael Vijgen"
      },
      "geometry": {
        "type": "Point",
        "coordinates": [
          5.827047,
          50.957289
        ]
      }
    },
    {
      "type": "Feature",
      "properties": {
        "name": "Boon's dagmarkt Nieuwstadt"
      },
      "geometry": {
        "type": "Point",
        "coordinates": [
          5.860517,
          51.036533
        ]
      }
    },
    {
      "type": "Feature",
      "properties": {
        "name": "Boon's dagmarkt Nieuwstadt"
      },
      "geometry": {
        "type": "Point",
        "coordinates": [
          5.860517,
          51.036533
        ]
      }
    },
    {
      "type": "Feature",
      "properties": {
        "name": "ALDI SÜD"
      },
      "geometry": {
        "type": "Point",
        "coordinates": [
          5.90034,
          51.017391
        ]
      }
    },
    {
      "type": "Feature",
      "properties": {
        "name": "Feldfrische Erdbeeren"
      },
      "geometry": {
        "type": "Point",
        "coordinates": [
          5.92693,
          51.03085
        ]
      }
    },
    {
      "type": "Feature",
      "properties": {
        "name": "Rewe Supermarkt"
      },
      "geometry": {
        "type": "Point",
        "coordinates": [
          5.901612,
          51.017018
        ]
      }
    },
    {
      "type": "Feature",
      "properties": {
        "name": "Netto Marken-Discount"
      },
      "geometry": {
        "type": "Point",
        "coordinates": [
          5.899007,
          51.016339
        ]
      }
    },
    {
      "type": "Feature",
      "properties": {
        "name": "Lidl Supermarket"
      },
      "geometry": {
        "type": "Point",
        "coordinates": [
          5.9009,
          51.01632
        ]
      }
    },
    {
      "type": "Feature",
      "properties": {
        "name": "AH Industriestraat"
      },
      "geometry": {
        "type": "Point",
        "coordinates": [
          5.845591,
          51.000426
        ]
      }
    },
    {
      "type": "Feature",
      "properties": {
        "name": "Lidl"
      },
      "geometry": {
        "type": "Point",
        "coordinates": [
          5.84654,
          51.00055
        ]
      }
    },
    {
      "type": "Feature",
      "properties": {
        "name": "Makstore"
      },
      "geometry": {
        "type": "Point",
        "coordinates": [
          5.850072,
          51.010638
        ]
      }
    },
    {
      "type": "Feature",
      "properties": {
        "name": "Keiro"
      },
      "geometry": {
        "type": "Point",
        "coordinates": [
          5.85302,
          51.006753
        ]
      }
    },
    {
      "type": "Feature",
      "properties": {
        "name": "Jumbo"
      },
      "geometry": {
        "type": "Point",
        "coordinates": [
          5.853358,
          51.006401
        ]
      }
    },
    {
      "type": "Feature",
      "properties": {
        "name": "Jumbo"
      },
      "geometry": {
        "type": "Point",
        "coordinates": [
          5.842274,
          50.993584
        ]
      }
    },
    {
      "type": "Feature",
      "properties": {
        "name": "TOGO AH Stationsplein"
      },
      "geometry": {
        "type": "Point",
        "coordinates": [
          5.859226,
          51.00142
        ]
      }
    },
    {
      "type": "Feature",
      "properties": {
        "name": "AH Brugstraat"
      },
      "geometry": {
        "type": "Point",
        "coordinates": [
          5.858964,
          50.999419
        ]
      }
    },
    {
      "type": "Feature",
      "properties": {
        "name": "Fingerbread B.V."
      },
      "geometry": {
        "type": "Point",
        "coordinates": [
          5.884152,
          51.117826
        ]
      }
    },
    {
      "type": "Feature",
      "properties": {
        "name": "Lizette"
      },
      "geometry": {
        "type": "Point",
        "coordinates": [
          5.900362,
          51.12251
        ]
      }
    },
    {
      "type": "Feature",
      "properties": {
        "name": "Lidl"
      },
      "geometry": {
        "type": "Point",
        "coordinates": [
          5.886,
          51.09859
        ]
      }
    },
    {
      "type": "Feature",
      "properties": {
        "name": "Albert Heijn"
      },
      "geometry": {
        "type": "Point",
        "coordinates": [
          5.887722,
          51.098232
        ]
      }
    },
    {
      "type": "Feature",
      "properties": {
        "name": "Bazaar Pey"
      },
      "geometry": {
        "type": "Point",
        "coordinates": [
          5.886546,
          51.098005
        ]
      }
    },
    {
      "type": "Feature",
      "properties": {
        "name": "AH Nieuwe Markt"
      },
      "geometry": {
        "type": "Point",
        "coordinates": [
          5.873072,
          51.103517
        ]
      }
    },
    {
      "type": "Feature",
      "properties": {
        "name": "Ahujieni kebabai"
      },
      "geometry": {
        "type": "Point",
        "coordinates": [
          5.872788,
          51.103548
        ]
      }
    },
    {
      "type": "Feature",
      "properties": {
        "name": "Polski Sklep Delikatesy Echt-Pol"
      },
      "geometry": {
        "type": "Point",
        "coordinates": [
          5.872767,
          51.103555
        ]
      }
    },
    {
      "type": "Feature",
      "properties": {
        "name": "."
      },
      "geometry": {
        "type": "Point",
        "coordinates": [
          5.808211,
          50.982286
        ]
      }
    },
    {
      "type": "Feature",
      "properties": {
        "name": "Jumbo"
      },
      "geometry": {
        "type": "Point",
        "coordinates": [
          5.814687,
          50.984474
        ]
      }
    },
    {
      "type": "Feature",
      "properties": {
        "name": "PKBoodschappenservice.nl"
      },
      "geometry": {
        "type": "Point",
        "coordinates": [
          5.815732,
          50.983562
        ]
      }
    },
    {
      "type": "Feature",
      "properties": {
        "name": "Laumen Honingartikelen"
      },
      "geometry": {
        "type": "Point",
        "coordinates": [
          5.863923,
          50.918806
        ]
      }
    },
    {
      "type": "Feature",
      "properties": {
        "name": "Jumbo"
      },
      "geometry": {
        "type": "Point",
        "coordinates": [
          5.80885,
          51.032683
        ]
      }
    },
    {
      "type": "Feature",
      "properties": {
        "name": "Akker"
      },
      "geometry": {
        "type": "Point",
        "coordinates": [
          5.811404,
          51.079309
        ]
      }
    },
    {
      "type": "Feature",
      "properties": {
        "name": "PLUS Crombach"
      },
      "geometry": {
        "type": "Point",
        "coordinates": [
          5.853664,
          51.064111
        ]
      }
    },
    {
      "type": "Feature",
      "properties": {
        "name": "V.o.f. Coll‚"
      },
      "geometry": {
        "type": "Point",
        "coordinates": [
          5.864208,
          51.071964
        ]
      }
    },
    {
      "type": "Feature",
      "properties": {
        "name": "PLUS Quaedvlieg"
      },
      "geometry": {
        "type": "Point",
        "coordinates": [
          5.950272,
          50.935675
        ]
      }
    },
    {
      "type": "Feature",
      "properties": {
        "name": "Luc Ruiter groente en fruitspecialist"
      },
      "geometry": {
        "type": "Point",
        "coordinates": [
          5.941756,
          50.936959
        ]
      }
    },
    {
      "type": "Feature",
      "properties": {
        "name": "Groente- en Fruitspecialist Luc Ruiter & Zn."
      },
      "geometry": {
        "type": "Point",
        "coordinates": [
          5.947047,
          50.9263
        ]
      }
    },
    {
      "type": "Feature",
      "properties": {
        "name": "AH Akerstraat Noord"
      },
      "geometry": {
        "type": "Point",
        "coordinates": [
          5.941658,
          50.926319
        ]
      }
    },
    {
      "type": "Feature",
      "properties": {
        "name": "Hajodé Beheer B.V."
      },
      "geometry": {
        "type": "Point",
        "coordinates": [
          5.960199,
          50.940896
        ]
      }
    },
    {
      "type": "Feature",
      "properties": {
        "name": "'t Versappeltje"
      },
      "geometry": {
        "type": "Point",
        "coordinates": [
          5.947087,
          50.920187
        ]
      }
    },
    {
      "type": "Feature",
      "properties": {
        "name": "AH Kouvenderstraat"
      },
      "geometry": {
        "type": "Point",
        "coordinates": [
          5.931177,
          50.92529
        ]
      }
    },
    {
      "type": "Feature",
      "properties": {
        "name": "Lidl"
      },
      "geometry": {
        "type": "Point",
        "coordinates": [
          5.969722,
          50.938108
        ]
      }
    },
    {
      "type": "Feature",
      "properties": {
        "name": "MRT Shop & Bakery"
      },
      "geometry": {
        "type": "Point",
        "coordinates": [
          5.854437,
          51.157201
        ]
      }
    },
    {
      "type": "Feature",
      "properties": {
        "name": "Mart Dijkstra Thorn Beheer B.V."
      },
      "geometry": {
        "type": "Point",
        "coordinates": [
          5.83556,
          51.165791
        ]
      }
    },
    {
      "type": "Feature",
      "properties": {
        "name": "Neto Luchtkanalen B.V."
      },
      "geometry": {
        "type": "Point",
        "coordinates": [
          5.83637,
          51.168089
        ]
      }
    },
    {
      "type": "Feature",
      "properties": {
        "name": "SPAR Express Geistingen"
      },
      "geometry": {
        "type": "Point",
        "coordinates": [
          5.809689,
          51.134375
        ]
      }
    },
    {
      "type": "Feature",
      "properties": {
        "name": "Lidl"
      },
      "geometry": {
        "type": "Point",
        "coordinates": [
          5.92358,
          50.92374
        ]
      }
    },
    {
      "type": "Feature",
      "properties": {
        "name": "Nador Market"
      },
      "geometry": {
        "type": "Point",
        "coordinates": [
          5.925821,
          50.924629
        ]
      }
    },
    {
      "type": "Feature",
      "properties": {
        "name": "PLUS"
      },
      "geometry": {
        "type": "Point",
        "coordinates": [
          5.926054,
          50.925338
        ]
      }
    },
    {
      "type": "Feature",
      "properties": {
        "name": "Kul Alnas Supermarkt"
      },
      "geometry": {
        "type": "Point",
        "coordinates": [
          5.867842,
          50.996543
        ]
      }
    },
    {
      "type": "Feature",
      "properties": {
        "name": "AH Walstraat"
      },
      "geometry": {
        "type": "Point",
        "coordinates": [
          5.866648,
          50.997449
        ]
      }
    },
    {
      "type": "Feature",
      "properties": {
        "name": "Mai Markt V.o.f."
      },
      "geometry": {
        "type": "Point",
        "coordinates": [
          5.871917,
          50.99766
        ]
      }
    },
    {
      "type": "Feature",
      "properties": {
        "name": "Night Shop Nachtwinkel ~ Algemene Voeding"
      },
      "geometry": {
        "type": "Point",
        "coordinates": [
          5.803637,
          51.129758
        ]
      }
    },
    {
      "type": "Feature",
      "properties": {
        "name": "De Vitaminemarkt"
      },
      "geometry": {
        "type": "Point",
        "coordinates": [
          5.916562,
          50.949019
        ]
      }
    },
    {
      "type": "Feature",
      "properties": {
        "name": "Albert Heijn"
      },
      "geometry": {
        "type": "Point",
        "coordinates": [
          5.923591,
          50.941493
        ]
      }
    },
    {
      "type": "Feature",
      "properties": {
        "name": "Releaff Natuurlijk Gezond"
      },
      "geometry": {
        "type": "Point",
        "coordinates": [
          5.923709,
          50.941273
        ]
      }
    },
    {
      "type": "Feature",
      "properties": {
        "name": "Jan Linders Ittervoort"
      },
      "geometry": {
        "type": "Point",
        "coordinates": [
          5.819096,
          51.170932
        ]
      }
    },
    {
      "type": "Feature",
      "properties": {
        "name": "Yasar Market"
      },
      "geometry": {
        "type": "Point",
        "coordinates": [
          5.971827,
          50.946816
        ]
      }
    },
    {
      "type": "Feature",
      "properties": {
        "name": "AH Koutenveld"
      },
      "geometry": {
        "type": "Point",
        "coordinates": [
          5.970099,
          50.946526
        ]
      }
    },
    {
      "type": "Feature",
      "properties": {
        "name": "Jan Linders"
      },
      "geometry": {
        "type": "Point",
        "coordinates": [
          5.971509,
          50.945316
        ]
      }
    },
    {
      "type": "Feature",
      "properties": {
        "name": "V.o.f. Cloodt"
      },
      "geometry": {
        "type": "Point",
        "coordinates": [
          5.970847,
          50.958228
        ]
      }
    },
    {
      "type": "Feature",
      "properties": {
        "name": "AH Kennedylaan"
      },
      "geometry": {
        "type": "Point",
        "coordinates": [
          5.959898,
          50.949362
        ]
      }
    },
    {
      "type": "Feature",
      "properties": {
        "name": "Dorpswinkel Super Mario"
      },
      "geometry": {
        "type": "Point",
        "coordinates": [
          5.881755,
          51.161175
        ]
      }
    },
    {
      "type": "Feature",
      "properties": {
        "name": "Lidl"
      },
      "geometry": {
        "type": "Point",
        "coordinates": [
          5.969511,
          50.923372
        ]
      }
    },
    {
      "type": "Feature",
      "properties": {
        "name": "Fa. Ramakers"
      },
      "geometry": {
        "type": "Point",
        "coordinates": [
          5.961707,
          50.914551
        ]
      }
    },
    {
      "type": "Feature",
      "properties": {
        "name": "Toko Dewi"
      },
      "geometry": {
        "type": "Point",
        "coordinates": [
          5.958435,
          50.917768
        ]
      }
    },
    {
      "type": "Feature",
      "properties": {
        "name": "Toko Indonesia"
      },
      "geometry": {
        "type": "Point",
        "coordinates": [
          5.958437,
          50.917779
        ]
      }
    },
    {
      "type": "Feature",
      "properties": {
        "name": "Maatschap Vos"
      },
      "geometry": {
        "type": "Point",
        "coordinates": [
          5.853837,
          51.126851
        ]
      }
    },
    {
      "type": "Feature",
      "properties": {
        "name": "Boerderijwinkel Berkelaar"
      },
      "geometry": {
        "type": "Point",
        "coordinates": [
          5.872252,
          51.122946
        ]
      }
    },
    {
      "type": "Feature",
      "properties": {
        "name": "V.o.f. Toko Elly"
      },
      "geometry": {
        "type": "Point",
        "coordinates": [
          5.87353,
          50.999316
        ]
      }
    },
    {
      "type": "Feature",
      "properties": {
        "name": "Plantage1"
      },
      "geometry": {
        "type": "Point",
        "coordinates": [
          5.935181,
          51.147261
        ]
      }
    },
    {
      "type": "Feature",
      "properties": {
        "name": "Boon's Markt Linne"
      },
      "geometry": {
        "type": "Point",
        "coordinates": [
          5.941421,
          51.159128
        ]
      }
    },
    {
      "type": "Feature",
      "properties": {
        "name": "Castor Products BV"
      },
      "geometry": {
        "type": "Point",
        "coordinates": [
          5.932183,
          51.15647
        ]
      }
    },
    {
      "type": "Feature",
      "properties": {
        "name": "Plus Montfort"
      },
      "geometry": {
        "type": "Point",
        "coordinates": [
          5.948226,
          51.127226
        ]
      }
    },
    {
      "type": "Feature",
      "properties": {
        "name": "Jumbo"
      },
      "geometry": {
        "type": "Point",
        "coordinates": [
          5.901233,
          51.18056
        ]
      }
    },
    {
      "type": "Feature",
      "properties": {
        "name": "DELI'S by Brigitte"
      },
      "geometry": {
        "type": "Point",
        "coordinates": [
          5.896195,
          51.178003
        ]
      }
    },
    {
      "type": "Feature",
      "properties": {
        "name": "Maatschap Jenniskens"
      },
      "geometry": {
        "type": "Point",
        "coordinates": [
          5.904875,
          51.181261
        ]
      }
    },
    {
      "type": "Feature",
      "properties": {
        "name": "Boerderijwinkel Paulissen"
      },
      "geometry": {
        "type": "Point",
        "coordinates": [
          5.96686,
          51.062172
        ]
      }
    },
    {
      "type": "Feature",
      "properties": {
        "name": "Anja's Garden"
      },
      "geometry": {
        "type": "Point",
        "coordinates": [
          5.968884,
          51.063059
        ]
      }
    },
    {
      "type": "Feature",
      "properties": {
        "name": "Oppe Boesj"
      },
      "geometry": {
        "type": "Point",
        "coordinates": [
          5.966927,
          51.061714
        ]
      }
    },
    {
      "type": "Feature",
      "properties": {
        "name": "Spargelhof Janßen"
      },
      "geometry": {
        "type": "Point",
        "coordinates": [
          5.98517,
          51.065842
        ]
      }
    },
    {
      "type": "Feature",
      "properties": {
        "name": "ALDI SÜD"
      },
      "geometry": {
        "type": "Point",
        "coordinates": [
          5.930185,
          50.998161
        ]
      }
    },
    {
      "type": "Feature",
      "properties": {
        "name": "EDEKA Schäpers"
      },
      "geometry": {
        "type": "Point",
        "coordinates": [
          5.929799,
          50.997924
        ]
      }
    },
    {
      "type": "Feature",
      "properties": {
        "name": "Petras Shop Backshop Und Kiosk im Selfkant-Höngen"
      },
      "geometry": {
        "type": "Point",
        "coordinates": [
          5.938261,
          51.025612
        ]
      }
    },
    {
      "type": "Feature",
      "properties": {
        "name": "Netto Marken-Discount"
      },
      "geometry": {
        "type": "Point",
        "coordinates": [
          5.985667,
          50.993565
        ]
      }
    },
    {
      "type": "Feature",
      "properties": {
        "name": "Roel Heerschap Beheer B.V."
      },
      "geometry": {
        "type": "Point",
        "coordinates": [
          5.888803,
          51.252137
        ]
      }
    },
    {
      "type": "Feature",
      "properties": {
        "name": "INVENTARO"
      },
      "geometry": {
        "type": "Point",
        "coordinates": [
          5.889135,
          51.251075
        ]
      }
    },
    {
      "type": "Feature",
      "properties": {
        "name": "Frank Buysrogge Supermarkten B.V."
      },
      "geometry": {
        "type": "Point",
        "coordinates": [
          5.889135,
          51.251075
        ]
      }
    },
    {
      "type": "Feature",
      "properties": {
        "name": "Lidl"
      },
      "geometry": {
        "type": "Point",
        "coordinates": [
          5.896509,
          51.250446
        ]
      }
    },
    {
      "type": "Feature",
      "properties": {
        "name": "Polski Kredens"
      },
      "geometry": {
        "type": "Point",
        "coordinates": [
          5.893662,
          51.249815
        ]
      }
    },
    {
      "type": "Feature",
      "properties": {
        "name": "Albert Heijn"
      },
      "geometry": {
        "type": "Point",
        "coordinates": [
          5.89994,
          51.250777
        ]
      }
    },
    {
      "type": "Feature",
      "properties": {
        "name": "Primeur"
      },
      "geometry": {
        "type": "Point",
        "coordinates": [
          5.897048,
          51.245278
        ]
      }
    },
    {
      "type": "Feature",
      "properties": {
        "name": "de Groentegaard"
      },
      "geometry": {
        "type": "Point",
        "coordinates": [
          5.886938,
          51.2441
        ]
      }
    },
    {
      "type": "Feature",
      "properties": {
        "name": "Steeghs asperges"
      },
      "geometry": {
        "type": "Point",
        "coordinates": [
          5.912723,
          51.260632
        ]
      }
    },
    {
      "type": "Feature",
      "properties": {
        "name": "Autoservice Kelpen"
      },
      "geometry": {
        "type": "Point",
        "coordinates": [
          5.841541,
          51.203655
        ]
      }
    },
    {
      "type": "Feature",
      "properties": {
        "name": "Nova Natura BV"
      },
      "geometry": {
        "type": "Point",
        "coordinates": [
          5.87337,
          51.33454
        ]
      }
    },
    {
      "type": "Feature",
      "properties": {
        "name": "Jumbo"
      },
      "geometry": {
        "type": "Point",
        "coordinates": [
          5.891132,
          51.345256
        ]
      }
    },
    {
      "type": "Feature",
      "properties": {
        "name": "Versmarkt Meijel"
      },
      "geometry": {
        "type": "Point",
        "coordinates": [
          5.89341,
          51.345657
        ]
      }
    },
    {
      "type": "Feature",
      "properties": {
        "name": "Versto BV"
      },
      "geometry": {
        "type": "Point",
        "coordinates": [
          5.881769,
          51.353244
        ]
      }
    },
    {
      "type": "Feature",
      "properties": {
        "name": "Linders asperges & rabarber"
      },
      "geometry": {
        "type": "Point",
        "coordinates": [
          5.93958,
          51.325025
        ]
      }
    },
    {
      "type": "Feature",
      "properties": {
        "name": "Maatschap P. en T. Bongers"
      },
      "geometry": {
        "type": "Point",
        "coordinates": [
          5.94309,
          51.304053
        ]
      }
    },
    {
      "type": "Feature",
      "properties": {
        "name": "Attent Neerkant Supermarkt"
      },
      "geometry": {
        "type": "Point",
        "coordinates": [
          5.865503,
          51.366718
        ]
      }
    },
    {
      "type": "Feature",
      "properties": {
        "name": "bioblow"
      },
      "geometry": {
        "type": "Point",
        "coordinates": [
          5.963465,
          51.227555
        ]
      }
    },
    {
      "type": "Feature",
      "properties": {
        "name": "AH Linsenhof"
      },
      "geometry": {
        "type": "Point",
        "coordinates": [
          5.959815,
          51.23445
        ]
      }
    },
    {
      "type": "Feature",
      "properties": {
        "name": "Albert"
      },
      "geometry": {
        "type": "Point",
        "coordinates": [
          5.959815,
          51.23445
        ]
      }
    },
    {
      "type": "Feature",
      "properties": {
        "name": "Boerderijwinkel de Vlegert"
      },
      "geometry": {
        "type": "Point",
        "coordinates": [
          5.964317,
          51.365649
        ]
      }
    },
    {
      "type": "Feature",
      "properties": {
        "name": "De Maris B.V."
      },
      "geometry": {
        "type": "Point",
        "coordinates": [
          5.93311,
          51.352119
        ]
      }
    },
    {
      "type": "Feature",
      "properties": {
        "name": "Multigrow Grashoek B.V."
      },
      "geometry": {
        "type": "Point",
        "coordinates": [
          5.924108,
          51.351326
        ]
      }
    },
    {
      "type": "Feature",
      "properties": {
        "name": "Tuinderij Reinders-Bruynen"
      },
      "geometry": {
        "type": "Point",
        "coordinates": [
          5.952207,
          51.343218
        ]
      }
    },
    {
      "type": "Feature",
      "properties": {
        "name": "Aardbei-snijderij Van der Werf B.V."
      },
      "geometry": {
        "type": "Point",
        "coordinates": [
          5.922089,
          51.381896
        ]
      }
    },
    {
      "type": "Feature",
      "properties": {
        "name": "Maatschap Berden Wilms"
      },
      "geometry": {
        "type": "Point",
        "coordinates": [
          5.924601,
          51.423215
        ]
      }
    },
    {
      "type": "Feature",
      "properties": {
        "name": "Bijzondere Smaken"
      },
      "geometry": {
        "type": "Point",
        "coordinates": [
          5.83194,
          51.419039
        ]
      }
    },
    {
      "type": "Feature",
      "properties": {
        "name": "Coop"
      },
      "geometry": {
        "type": "Point",
        "coordinates": [
          5.895418,
          51.49051
        ]
      }
    },
    {
      "type": "Feature",
      "properties": {
        "name": "Verse Eieren van de Boer"
      },
      "geometry": {
        "type": "Point",
        "coordinates": [
          5.833064,
          51.469952
        ]
      }
    },
    {
      "type": "Feature",
      "properties": {
        "name": "Daily Foodstore"
      },
      "geometry": {
        "type": "Point",
        "coordinates": [
          5.952119,
          51.456948
        ]
      }
    },
    {
      "type": "Feature",
      "properties": {
        "name": "Kwekerij De Punderman B.V."
      },
      "geometry": {
        "type": "Point",
        "coordinates": [
          5.830105,
          51.453581
        ]
      }
    },
    {
      "type": "Feature",
      "properties": {
        "name": "Daily Foodstore"
      },
      "geometry": {
        "type": "Point",
        "coordinates": [
          5.962945,
          51.44872
        ]
      }
    },
    {
      "type": "Feature",
      "properties": {
        "name": "Albert Heijn"
      },