[
  {
    "name": "Neuer Friedhof Wachstedt",
    "lat": 51.28984870000001,
    "lng": 10.2470511
  },
  {
    "name": "Alter Friedhof Wachstedt",
    "lat": 51.293649699999996,
    "lng": 10.2490069
  },
  {
    "name": "Friedhof Martinfeld",
    "lat": 51.2894576,
    "lng": 10.1860906
  },
  {
    "name": "Friedhof Heuthen",
    "lat": 51.3298121,
    "lng": 10.220619
  },
  {
    "name": "Friedhof Kreuzebra",
    "lat": 51.340517000000006,
    "lng": 10.2552814
  },
  {
    "name": "Trauerhalle Geisleden",
    "lat": 51.3514446,
    "lng": 10.201106399999999
  },
  {
    "name": "Friedhof Geisleden",
    "lat": 51.351290299999995,
    "lng": 10.2004668
  },
  {
    "name": "Friedhof Bodenrode",
    "lat": 51.398811599999995,
    "lng": 10.213493099999999
  },
  {
    "name": "Hauptstraße",
    "lat": 51.389945,
    "lng": 10.2459375
  },
  {
    "name": "Friedhof Wingerode",
    "lat": 51.3898346,
    "lng": 10.2462151
  },
  {
    "name": "Aue 20",
    "lat": 51.395046199999996,
    "lng": 10.188837099999999
  },
  {
    "name": "Friedhof Westhausen",
    "lat": 51.395137,
    "lng": 10.189107199999999
  },
  {
    "name": "Friedhof Steinbach",
    "lat": 51.422368899999995,
    "lng": 10.2199469
  },
  {
    "name": "Friedhof Schierschwende",
    "lat": 51.1548648,
    "lng": 10.276159999999999
  },
  {
    "name": "Friedhof Frankenroda",
    "lat": 51.0921228,
    "lng": 10.2747902
  },
  {
    "name": "Friedhof Ebenshausen",
    "lat": 51.0864836,
    "lng": 10.313109599999999
  },
  {
    "name": "Friedhof Scherbda",
    "lat": 51.088724899999995,
    "lng": 10.2527447
  },
  {
    "name": "Friedhof Falken",
    "lat": 51.116374099999994,
    "lng": 10.2662243
  },
  {
    "name": "Friedhof Diedorf",
    "lat": 51.1761768,
    "lng": 10.2788544
  },
  {
    "name": "Friedhof Katharinenberg",
    "lat": 51.1804239,
    "lng": 10.2592216
  },
  {
    "name": "Friedhof Faulungen",
    "lat": 51.19455620000001,
    "lng": 10.2618716
  },
  {
    "name": "Friedhof Kloster Zella",
    "lat": 51.2163628,
    "lng": 10.272521099999999
  },
  {
    "name": "Friedhof Struth",
    "lat": 51.2225366,
    "lng": 10.3070889
  },
  {
    "name": "Friedhof Küllstedt",
    "lat": 51.2722312,
    "lng": 10.2812451
  },
  {
    "name": "Thuringia",
    "lat": 51.3122713,
    "lng": 10.282698
  },
  {
    "name": "Friedhof Kefferhausen",
    "lat": 51.3122492,
    "lng": 10.282936399999999
  },
  {
    "name": "Friedhof Büttstedt",
    "lat": 51.2600729,
    "lng": 10.3085078
  },
  {
    "name": "Thuringia",
    "lat": 51.3125906,
    "lng": 10.3099022
  },
  {
    "name": "Friedhof Dingelstädt",
    "lat": 51.312756,
    "lng": 10.3090353
  },
  {
    "name": "Geschwister-Scholl-Straße 45",
    "lat": 51.3147396,
    "lng": 10.313561799999999
  },
  {
    "name": "Alter Friedhof Dingelstädt",
    "lat": 51.314153700000006,
    "lng": 10.312601599999999
  },
  {
    "name": "Friedhof Beuren",
    "lat": 51.3778848,
    "lng": 10.277798200000001
  },
  {
    "name": "Friedhof Kallmerode",
    "lat": 51.3528234,
    "lng": 10.3076907
  },
  {
    "name": "Am Friedhof",
    "lat": 51.392148999999996,
    "lng": 10.316553599999999
  },
  {
    "name": "Friedhof Leinefelde",
    "lat": 51.3916153,
    "lng": 10.3169224
  },
  {
    "name": "Friedhof Hundeshagen",
    "lat": 51.431453000000005,
    "lng": 10.279697599999999
  },
  {
    "name": "St. Johannes",
    "lat": 51.5584278,
    "lng": 10.3082526
  },
  {
    "name": "St.-Andreas-Straße 20",
    "lat": 51.536086999999995,
    "lng": 10.24377
  },
  {
    "name": "Friedhof Mingerode",
    "lat": 51.5359976,
    "lng": 10.2438672
  },
  {
    "name": "Friedhof Teistungen",
    "lat": 51.47113780000001,
    "lng": 10.2588321
  },
  {
    "name": "Friedhof Tastungen",
    "lat": 51.4703513,
    "lng": 10.307055
  },
  {
    "name": "Friedhof Wehnde",
    "lat": 51.4834557,
    "lng": 10.3126038
  },
  {
    "name": "Friedhof Ferna",
    "lat": 51.4554162,
    "lng": 10.3117919
  },
  {
    "name": "Friedhof Gerblingerode",
    "lat": 51.4914268,
    "lng": 10.2631643
  },
  {
    "name": "Auf d. Klappe 14",
    "lat": 51.507608,
    "lng": 10.2636559
  },
  {
    "name": "St.-Paulus-Friedhof",
    "lat": 51.50747,
    "lng": 10.2633312
  },
  {
    "name": "Friedhof Ecklingerode",
    "lat": 51.50501680000001,
    "lng": 10.310616600000001
  },
  {
    "name": "Jüdischer Friedhof Duderstadt",
    "lat": 51.517230999999995,
    "lng": 10.2489919
  },
  {
    "name": "Friedhof Rhumspringe",
    "lat": 51.5850253,
    "lng": 10.2939055
  },
  {
    "name": "Lower Saxony",
    "lat": 51.616191,
    "lng": 10.3150526
  },
  {
    "name": "Friedhof Pöhlde",
    "lat": 51.615964899999994,
    "lng": 10.3152753
  },
  {
    "name": "Vor der Steige",
    "lat": 51.6598324,
    "lng": 10.280430899999999
  },
  {
    "name": "Friedhof Elbingerode am Harz",
    "lat": 51.659509,
    "lng": 10.2806017
  },
  {
    "name": "Hauptstraße 1",
    "lat": 51.668508599999996,
    "lng": 10.2876885
  },
  {
    "name": "Friedhof Mosbach",
    "lat": 50.9379342,
    "lng": 10.3627862
  },
  {
    "name": "Alter Friedhof",
    "lat": 50.9746655,
    "lng": 10.3153397
  },
  {
    "name": "An den Erlengräben",
    "lat": 50.956426500000006,
    "lng": 10.3649498
  },
  {
    "name": "Alter Jüdische Friedhof Eisenach",
    "lat": 50.9846408,
    "lng": 10.3180233
  },
  {
    "name": "Neuer Jüdische Friedhof Eisenach",
    "lat": 50.9861623,
    "lng": 10.319915499999999
  },
  {
    "name": "Hauptfriedhof Eisenach",
    "lat": 50.9857538,
    "lng": 10.3171201
  },
  {
    "name": "Friedhofsgasse 3",
    "lat": 51.0772487,
    "lng": 10.3379493
  },
  {
    "name": "Friedhof Mihla",
    "lat": 51.0772294,
    "lng": 10.3378819
  },
  {
    "name": "Friedhof Lauterbach",
    "lat": 51.070932,
    "lng": 10.351742699999999
  },
  {
    "name": "Friedhof Bischofroda",
    "lat": 51.0563448,
    "lng": 10.3605412
  },
  {
    "name": "Friedhof Neukirchen",
    "lat": 51.021022599999995,
    "lng": 10.340359399999999
  },
  {
    "name": "Friedhof Berteroda",
    "lat": 51.026739,
    "lng": 10.3605606
  },
  {
    "name": "Kriegsgräberstätte",
    "lat": 50.992032699999996,
    "lng": 10.356600499999999
  },
  {
    "name": "Soldatenfriedhof Dürrerhof",
    "lat": 50.991946399999996,
    "lng": 10.3567257
  },
  {
    "name": "Friedhof Stregda",
    "lat": 51.002657199999994,
    "lng": 10.312760899999999
  },
  {
    "name": "Friedhof Hötzelsroda",
    "lat": 51.0129119,
    "lng": 10.369940399999999
  },
  {
    "name": "Baumgarten 2",
    "lat": 51.1163247,
    "lng": 10.333517299999999
  },
  {
    "name": "Friedhof Hallungen",
    "lat": 51.1350105,
    "lng": 10.3321218
  },
  {
    "name": "Friedhof",
    "lat": 51.1609017,
    "lng": 10.3231872
  },
  {
    "name": "Alte Friedhof Heyerode",
    "lat": 51.1608719,
    "lng": 10.323070099999999
  },
  {
    "name": "Neuer Friedhof",
    "lat": 51.162298199999995,
    "lng": 10.323320599999999
  },
  {
    "name": "Friedhof Bickenriede",
    "lat": 51.2533921,
    "lng": 10.3489072
  },
  {
    "name": "Friedhof Dörna",
    "lat": 51.2381002,
    "lng": 10.3646365
  },
  {
    "name": "Friedhof Eigenrieden",
    "lat": 51.210883599999995,
    "lng": 10.327457299999999
  },
  {
    "name": "Friedhof Helmsdorf",
    "lat": 51.2950569,
    "lng": 10.3503607
  },
  {
    "name": "Cemetery Silberhausen",
    "lat": 51.3099249,
    "lng": 10.3423764
  },
  {
    "name": "Friedhof Zella",
    "lat": 51.290482999999995,
    "lng": 10.370016999999999
  },
  {
    "name": "Friedhof Birkungen",
    "lat": 51.3626272,
    "lng": 10.3356882
  },
  {
    "name": "Rasenweg",
    "lat": 51.404970299999995,
    "lng": 10.3419748
  },
  {
    "name": "Friedhof Breitenbach",
    "lat": 51.405044,
    "lng": 10.3418513
  },
  {
    "name": "Friedhof Breitenholz",
    "lat": 51.3863742,
    "lng": 10.3610059
  },
  {
    "name": "Schloßstraße 14",
    "lat": 51.4495439,
    "lng": 10.3427293
  },
  {
    "name": "Gruft von Wintzingerode",
    "lat": 51.4495612,
    "lng": 10.342873599999999
  },
  {
    "name": "Friedhof Brehme",
    "lat": 51.4946765,
    "lng": 10.344968699999999
  },
  {
    "name": "Friedhof Wintzingerode",
    "lat": 51.4439954,
    "lng": 10.336198800000002
  },
  {
    "name": "Historische Grabstätte Adelsborn",
    "lat": 51.4453138,
    "lng": 10.3475299
  },
  {
    "name": "Friedhof Kirchohmfeld",
    "lat": 51.445230200000005,
    "lng": 10.355662500000001
  },
  {
    "name": "Thuringia",
    "lat": 51.4179166,
    "lng": 10.3696937
  },
  {
    "name": "Friedhof",
    "lat": 51.5322154,
    "lng": 10.343618900000001
  },
  {
    "name": "Brochthäuser Str. 6",
    "lat": 51.5533475,
    "lng": 10.3602238
  },
  {
    "name": "Markus Baden Tierfriedhof",
    "lat": 51.65031,
    "lng": 10.33811
  },
  {
    "name": "Friedhof Herzberg",
    "lat": 51.6489547,
    "lng": 10.3365305
  },
  {
    "name": "Kriegsgräberstätte",
    "lat": 51.6486539,
    "lng": 10.3372805
  },
  {
    "name": "Tierfriedhof Lunkstein",
    "lat": 51.6459127,
    "lng": 10.3540038
  },
  {
    "name": "Evangel. Friedhof Clausthal",
    "lat": 51.802960000000006,
    "lng": 10.33832
  },
  {
    "name": "Alter Friedhof",
    "lat": 51.8053824,
    "lng": 10.3371154
  },
  {
    "name": "Russischer Friedhof Clausthal-Zellerfeld",
    "lat": 51.8011066,
    "lng": 10.3623928
  },
  {
    "name": "Friedhofskapelle Zellerfeld",
    "lat": 51.8188854,
    "lng": 10.3391939
  },
  {
    "name": "Bergfriedhof Trinitatis",
    "lat": 50.8931328,
    "lng": 10.3690644
  },
  {
    "name": "Bergfriedhof Concordia",
    "lat": 50.8902644,
    "lng": 10.3673028
  },
  {
    "name": "Friedhof Thal",
    "lat": 50.916450499999996,
    "lng": 10.395325600000001
  },
  {
    "name": "Friedhof Kittelsthal",
    "lat": 50.924514699999996,
    "lng": 10.3813759
  },
  {
    "name": "Friedhof Farnroda",
    "lat": 50.9424193,
    "lng": 10.3935476
  },
  {
    "name": "Friedhof Deubach",
    "lat": 50.9314213,
    "lng": 10.4343446
  },
  {
    "name": "Friedhof Wutha",
    "lat": 50.9572377,
    "lng": 10.387806399999999
  },
  {
    "name": "Friedhof Beuernfeld",
    "lat": 51.010620599999996,
    "lng": 10.403948399999999
  },
  {
    "name": "Friedhof Großenlupnitz",
    "lat": 50.9951704,
    "lng": 10.4063942
  },
  {
    "name": "Friedhof Bolleroda",
    "lat": 51.018607599999996,
    "lng": 10.3972734
  },
  {
    "name": "Friedhof Stockhausen",
    "lat": 50.9908964,
    "lng": 10.3762536
  },
  {
    "name": "Friedhofstraße",
    "lat": 51.045025100000004,
    "lng": 10.3894935
  },
  {
    "name": "Friedhof Berka",
    "lat": 51.0449,
    "lng": 10.3895229
  },
  {
    "name": "Friedhof Kammerforst",
    "lat": 51.123821299999996,
    "lng": 10.425391099999999
  },
  {
    "name": "Alter Friedhof",
    "lat": 51.1233302,
    "lng": 10.4289624
  },
  {
    "name": "Friedhof Langula",
    "lat": 51.150480699999996,
    "lng": 10.4183915
  },
  {
    "name": "Cemetery Oberdorla",
    "lat": 51.158982699999996,
    "lng": 10.418116699999999
  },
  {
    "name": "Waldfriedhof Mühlhausen",
    "lat": 51.2058803,
    "lng": 10.3949397
  },
  {
    "name": "Friedhof Hollenbach",
    "lat": 51.23825,
    "lng": 10.38733
  },
  {
    "name": "Friedhof Lengefeld",
    "lat": 51.2561524,
    "lng": 10.3911584
  },
  {
    "name": "Beberstedter Str. 26",
    "lat": 51.2798057,
    "lng": 10.4056956
  },
  {
    "name": "Friedhof Horsmar",
    "lat": 51.2799566,
    "lng": 10.4060653
  },
  {
    "name": "Zellaer Weg 4",
    "lat": 51.311802899999996,
    "lng": 10.406888
  },
  {
    "name": "Friedhof Beberstedt",
    "lat": 51.3118869,
    "lng": 10.407284299999999
  },
  {
    "name": "Cemetery Kleinbartloff",
    "lat": 51.350634,
    "lng": 10.382716799999999
  },
  {
    "name": "Friedhof Hausen",
    "lat": 51.376708099999995,
    "lng": 10.3754966
  },
  {
    "name": "Friedhof Niederorschel",
    "lat": 51.3666651,
    "lng": 10.4311046
  },
  {
    "name": "Friedhof Gernrode",
    "lat": 51.3975581,
    "lng": 10.3973479
  },
  {
    "name": "Thuringia",
    "lat": 51.407838399999996,
    "lng": 10.399002
  },
  {
    "name": "Friedhof Kirchworbis",
    "lat": 51.4079431,
    "lng": 10.399104699999999
  },
  {
    "name": "Friedhof Breitenworbis",
    "lat": 51.409889199999995,
    "lng": 10.4221503
  },
  {
    "name": "Cemetery Worbis",
    "lat": 51.418006299999995,
    "lng": 10.370752399999999
  },
  {
    "name": "Friedhof Kaltohmfeld",
    "lat": 51.454283800000006,
    "lng": 10.3995676
  },
  {
    "name": "Friedhof Holungen",
    "lat": 51.4942078,
    "lng": 10.3926448
  },
  {
    "name": "Friedhof Jützenbach",
    "lat": 51.5223076,
    "lng": 10.381734699999999
  },
  {
    "name": "Friedhof Zwinge",
    "lat": 51.5534969,
    "lng": 10.3836263
  },
  {
    "name": "Friedhof Weißenborn-Lüderode",
    "lat": 51.5340059,
    "lng": 10.4195856
  },
  {
    "name": "Friedhof Silkerode",
    "lat": 51.5637815,
    "lng": 10.397330799999999
  },
  {
    "name": "Friedhof Bockelnhagen",
    "lat": 51.566456699999996,
    "lng": 10.4244946
  },
  {
    "name": "Tierfriedhof \"Am Vogelsang\"",
    "lat": 51.615279,
    "lng": 10.4000118
  },
  {
    "name": "Cemetery Scharzfeld",
    "lat": 51.6273372,
    "lng": 10.3870516
  },
  {
    "name": "Silkeroder Str. 22",
    "lat": 51.6127034,
    "lng": 10.421434099999999
  },
  {
    "name": "Friedhof Barbis",
    "lat": 51.6130116,
    "lng": 10.4213399
  },
  {
    "name": "Kriegsgräberstätte",
    "lat": 51.6901552,
    "lng": 10.4102857
  },
  {
    "name": "Kriegsgräberstätte",
    "lat": 51.6901288,
    "lng": 10.410134099999999
  },
  {
    "name": "Friedhof Schulenberg",
    "lat": 51.8297865,
    "lng": 10.4273517
  },
  {
    "name": "Friedhof Hohleborn",
    "lat": 50.7752021,
    "lng": 10.4698389
  },
  {
    "name": "Friedhof Mittelberg",
    "lat": 50.797887599999996,
    "lng": 10.474327800000001
  },
  {
    "name": "Friedhof Zimmergasse",
    "lat": 50.7990687,
    "lng": 10.4830653
  },
  {
    "name": "Friedhof Brotterode",
    "lat": 50.826549899999996,
    "lng": 10.4462733
  },
  {
    "name": "Friedhof Kälberfeld",
    "lat": 50.94105,
    "lng": 10.4601932
  },
  {
    "name": "Friedhof Schönau",
    "lat": 50.9440421,
    "lng": 10.4292932
  },
  {
    "name": "Friedhof Sättelstädt",
    "lat": 50.947201199999995,
    "lng": 10.477050199999999
  },
  {
    "name": "Friedhof Seebach",
    "lat": 50.9126488,
    "lng": 10.425491899999999
  },
  {
    "name": "Friedhof Schmerbach",
    "lat": 50.9029106,
    "lng": 10.4515814
  },
  {
    "name": "Waltershäuser Straße",
    "lat": 50.8909124,
    "lng": 10.462672399999999
  },
  {
    "name": "Friedhof Winterstein",
    "lat": 50.8909459,
    "lng": 10.462403799999999
  },
  {
    "name": "Friedhof Schwarzhausen",
    "lat": 50.9021677,
    "lng": 10.465138999999999
  },
  {
    "name": "Friedhof Fischbach",
    "lat": 50.883853599999995,
    "lng": 10.478754799999999
  },
  {
    "name": "Friedhof Melborn",
    "lat": 50.9748845,
    "lng": 10.4471023
  },
  {
    "name": "Friedhof Ettenhausen",
    "lat": 50.973784699999996,
    "lng": 10.4723011
  },
  {
    "name": "Friedhof Hastrungsfeld",
    "lat": 50.963305999999996,
    "lng": 10.4806637
  },
  {
    "name": "Friedhof Wenigenlupnitz",
    "lat": 50.982923899999996,
    "lng": 10.4292415
  },
  {
    "name": "Friedhof Wolfsbehringen",
    "lat": 51.005553299999995,
    "lng": 10.486726599999999
  },
  {
    "name": "Friedhof Flarchheim",
    "lat": 51.1251791,
    "lng": 10.482028200000002
  },
  {
    "name": "Friedhof Oppershausen",
    "lat": 51.1404735,
    "lng": 10.4452927
  },
  {
    "name": "Friedhof Niederorla",
    "lat": 51.1594712,
    "lng": 10.4521157
  },
  {
    "name": "Alter Friedhof",
    "lat": 51.2039723,
    "lng": 10.464001999999999
  },
  {
    "name": "Jüdischer Friedhof Mühlhausen/Thüringen",
    "lat": 51.2039006,
    "lng": 10.4645747
  },
  {
    "name": "Thuringia",
    "lat": 51.2372565,
    "lng": 10.451272099999999
  },
  {
    "name": "Friedhof Ammern",
    "lat": 51.2375492,
    "lng": 10.4513985
  },
  {
    "name": "Neuer Friedhof Mühlhausen",
    "lat": 51.197199499999996,
    "lng": 10.4576072
  },
  {
    "name": "Sowjetischer Soldatenfriedhof",
    "lat": 51.197305199999995,
    "lng": 10.462717699999999
  },
  {
    "name": "Friedhof Felchta",
    "lat": 51.1910939,
    "lng": 10.4420824
  },
  {
    "name": "Friedhof Dachrieden",
    "lat": 51.2647966,
    "lng": 10.4476167
  },
  {
    "name": "Friedhof Reiser",
    "lat": 51.2507763,
    "lng": 10.4717867
  },
  {
    "name": "Friedhof Eigenrode",
    "lat": 51.2908173,
    "lng": 10.4422182
  },
  {
    "name": "Friedhof Kaisershagen",
    "lat": 51.2752695,
    "lng": 10.4810953
  },
  {
    "name": "Friedhof Hüpstedt",
    "lat": 51.328218799999995,
    "lng": 10.4402116
  },
  {
    "name": "Thuringia",
    "lat": 51.347424,
    "lng": 10.4453786
  },
  {
    "name": "Friedhof Rüdigershagen",
    "lat": 51.3474584,
    "lng": 10.4452923
  },
  {
    "name": "Friedhof Zaunröden",
    "lat": 51.33700520000001,
    "lng": 10.4850726
  },
  {
    "name": "Friedhof Deuna",
    "lat": 51.3546895,
    "lng": 10.4712921
  },
  {
    "name": "Thuringia",
    "lat": 51.395553799999995,
    "lng": 10.4730379
  },
  {
    "name": "Friedhof Bernterode bei Worbis",
    "lat": 51.3960617,
    "lng": 10.4726676
  },
  {
    "name": "Friedhof Haynrode",
    "lat": 51.4431462,
    "lng": 10.440968699999999
  },
  {
    "name": "Friedhof Ascherode",
    "lat": 51.4275387,
    "lng": 10.4791176
  },
  {
    "name": "Friedhof Buhla",
    "lat": 51.4397321,
    "lng": 10.4851495
  },
  {
    "name": "Friedhof Neustadt",
    "lat": 51.4656965,
    "lng": 10.4664737
  },
  {
    "name": "Friedhof Hauröden",
    "lat": 51.481919399999995,
    "lng": 10.4398986
  },
  {
    "name": "Friedhof Großbodungen",
    "lat": 51.4727099,
    "lng": 10.482288400000002
  },
  {
    "name": "Friedhof Bischofferode",
    "lat": 51.4963529,
    "lng": 10.4502863
  },
  {
    "name": "Friedhof Weilrode",
    "lat": 51.5695717,
    "lng": 10.4608796
  },
  {
    "name": "Friedhof Bartolfelde",
    "lat": 51.5949615,
    "lng": 10.461976
  },
  {
    "name": "Friedhof Osterhagen",
    "lat": 51.5927775,
    "lng": 10.4773877
  },
  {
    "name": "Mörserweg",
    "lat": 51.619499399999995,
    "lng": 10.4698754
  },
  {
    "name": "Friedhofskapelle Bad Lauterberg",
    "lat": 51.61952120000001,
    "lng": 10.469743099999999
  },
  {
    "name": "Friedhof",
    "lat": 51.7953262,
    "lng": 10.4473107
  },
  {
    "name": "Kleine Horst 4",
    "lat": 51.8989118,
    "lng": 10.474715699999999
  },
  {
    "name": "Friedhof Oker",
    "lat": 51.899108,
    "lng": 10.4755889
  },
  {
    "name": "Friedhof Feldstraße Goslar",
    "lat": 51.9181951,
    "lng": 10.436333699999999
  },
  {
    "name": "Friedhof Feldstraße Eingang Hoher Brink",
    "lat": 51.9198569,
    "lng": 10.4311554
  },
  {
    "name": "Friedhofskapelle Hildesheimer Straße",
    "lat": 51.9138149,
    "lng": 10.4167726
  },
  {
    "name": "Alter Friedhof Goslar",
    "lat": 51.916393,
    "lng": 10.4168521
  },
  {
    "name": "Friedhof des Klostergutes Grauhof",
    "lat": 51.9359365,
    "lng": 10.4472884
  },
  {
    "name": "Friedhof Hahndorf",
    "lat": 51.955185699999994,
    "lng": 10.436050200000002
  },
  {
    "name": "Thuringia",
    "lat": 50.7249872,
    "lng": 10.487519899999999
  },
  {
    "name": "Friedhof Asbach",
    "lat": 50.725005599999996,
    "lng": 10.4875251
  },
  {
    "name": "Friedhof Näherstille",
    "lat": 50.7133155,
    "lng": 10.4780862
  },
  {
    "name": "Friedhof Mittelstille",
    "lat": 50.7003013,
    "lng": 10.4821017
  },
  {
    "name": "Friedhof Altersbach",
    "lat": 50.7049917,
    "lng": 10.542866199999999
  },
  {
    "name": "Friedhof Struth-Helmershof",
    "lat": 50.748554,
    "lng": 10.5082341
  },
  {
    "name": "Friedhof Schnellbach",
    "lat": 50.7566633,
    "lng": 10.5016533
  },
  {
    "name": "Friedhof Floh",
    "lat": 50.752851199999995,
    "lng": 10.477915399999999
  },
  {
    "name": "Tabarzer Friedhof",
    "lat": 50.878001499999996,
    "lng": 10.5107863
  },
  {
    "name": "Friedhof Tabarz",
    "lat": 50.877928,
    "lng": 10.5109225
  },
  {
    "name": "Friedhof Cabarz",
    "lat": 50.879999999999995,
    "lng": 10.4955404
  },
  {
    "name": "Friedhof Langenhain",
    "lat": 50.904275399999996,
    "lng": 10.5200595
  },
  {
    "name": "Friedhof Mechterstädt",
    "lat": 50.9451233,
    "lng": 10.527699499999999
  },
  {
    "name": "Friedhof Laucha",
    "lat": 50.9289937,
    "lng": 10.5449992
  },
  {
    "name": "Friedhof Ebenheim",
    "lat": 50.9769231,
    "lng": 10.5148853
  },
  {
    "name": "Friedhof Burla",
    "lat": 50.9570285,
    "lng": 10.4960915
  },
  {
    "name": "Friedhof Weingarten",
    "lat": 50.9736342,
    "lng": 10.538176799999999
  },
  {
    "name": "Friedhof Haina",
    "lat": 50.9906338,
    "lng": 10.5181575
  },
  {
    "name": "Friedhof Großenbehringen",
    "lat": 51.0259176,
    "lng": 10.5072453
  },
  {
    "name": "Friedhof Oesterbehringen",
    "lat": 51.0241553,
    "lng": 10.526206199999999
  },
  {
    "name": "Friedhof Friedrichswerth",
    "lat": 50.994206500000004,
    "lng": 10.544073599999999
  },
  {
    "name": "Friedhof Reichenbach",
    "lat": 51.0460426,
    "lng": 10.540787400000001
  },
  {
    "name": "Friedhof Craula",
    "lat": 51.066403699999995,
    "lng": 10.491505
  },
  {
    "name": "Friedhof Weberstedt",
    "lat": 51.1086326,
    "lng": 10.516315599999999
  },
  {
    "name": "Friedhof Mülverstedt",
    "lat": 51.1222256,
    "lng": 10.5068567
  },
  {
    "name": "Friedhof Heroldishausen",
    "lat": 51.137597899999996,
    "lng": 10.5138645
  },
  {
    "name": "Friedhof Seebach",
    "lat": 51.164578299999995,
    "lng": 10.512173599999999
  },
  {
    "name": "Friedhof Höngeda",
    "lat": 51.181494699999995,
    "lng": 10.5031614
  },
  {
    "name": "Friedhof Görmar",
    "lat": 51.2138308,
    "lng": 10.4999196
  },
  {
    "name": "Kirchberg 104",
    "lat": 51.2131584,
    "lng": 10.4947956
  },
  {
    "name": "Friedhof Großgrabe",
    "lat": 51.228397,
    "lng": 10.5368225
  },
  {
    "name": "Weinbergstraße 1",
    "lat": 51.2044322,
    "lng": 10.533628499999999
  },
  {
    "name": "Friedhof Bollstedt",
    "lat": 51.204262199999995,
    "lng": 10.533647
  },
  {
    "name": "Friedhof Kleingrabe",
    "lat": 51.2255556,
    "lng": 10.5431774
  },
  {
    "name": "Friedhof Saalfeld",
    "lat": 51.262303599999996,
    "lng": 10.5308967
  },
  {
    "name": "Friedhof Windeberg",
    "lat": 51.2713142,
    "lng": 10.5140189
  },
  {
    "name": "Friedhof Sollstedt",
    "lat": 51.309932,
    "lng": 10.485078399999999
  },
  {
    "name": "Friedhof Kleinkeula",
    "lat": 51.317491,
    "lng": 10.490369999999999
  },
  {
    "name": "Lange Str. 14",
    "lat": 51.3302629,
    "lng": 10.531785700000002
  },
  {
    "name": "Friedhof Keula",
    "lat": 51.330472799999995,
    "lng": 10.5319004
  },
  {
    "name": "Friedhof Vollenborn",
    "lat": 51.3615873,
    "lng": 10.509571900000001
  },
  {
    "name": "Hinter den Höfen 111",
    "lat": 51.4060747,
    "lng": 10.514409599999999
  },
  {
    "name": "Friedhof Wülfingerode",
    "lat": 51.4060061,
    "lng": 10.514329799999999
  },
  {
    "name": "Friedhof Rehungen",
    "lat": 51.3856974,
    "lng": 10.5246493
  },
  {
    "name": "Friedhof Kraja",
    "lat": 51.452149299999995,
    "lng": 10.5194193
  },
  {
    "name": "Friedhof Wallrode",
    "lat": 51.4610433,
    "lng": 10.494464599999999
  },
  {
    "name": "Friedhof Kleinbodungen",
    "lat": 51.4675939,
    "lng": 10.527162899999999
  },
  {
    "name": "Friedhof Epschenrode",
    "lat": 51.512214099999994,
    "lng": 10.5169962
  },
  {
    "name": "Friedhof Werningerode",
    "lat": 51.503285299999995,
    "lng": 10.491248299999999
  },
  {
    "name": "Friedhof Stöckey",
    "lat": 51.5354418,
    "lng": 10.497016799999999
  },
  {
    "name": "Friedhof Limlingerode",
    "lat": 51.5417929,
    "lng": 10.5279046
  },
  {
    "name": "Schützenstraße",
    "lat": 51.7114532,
    "lng": 10.5226095
  },
  {
    "name": "Cemetery Sankt Andreasberg",
    "lat": 51.7112209,
    "lng": 10.5221253
  },
  {
    "name": "Abschiedswald Goldberg",
    "lat": 51.8911994,
    "lng": 10.5070134
  },
  {
    "name": "Landstraße 86",
    "lat": 51.908538799999995,
    "lng": 10.510691399999999
  },
  {
    "name": "Friedhof Harlingerode",
    "lat": 51.908247499999995,
    "lng": 10.5103792
  },
  {
    "name": "Friedhof Schlewecke",
    "lat": 51.8955888,
    "lng": 10.534952599999999
  },
  {
    "name": "Friedhof Weddingen",
    "lat": 51.9710192,
    "lng": 10.4915481
  },
  {
    "name": "Friedhof Immenrode",
    "lat": 51.9604924,
    "lng": 10.484215599999999
  },
  {
    "name": "Friedhof Wehre",
    "lat": 52.0038626,
    "lng": 10.4959297
  },
  {
    "name": "Katholischer Friedhof Schlade",
    "lat": 52.0246439,
    "lng": 10.538102799999999
  },
  {
    "name": "Friedhof Schladen",
    "lat": 52.0264726,
    "lng": 10.5365407
  },
  {
    "name": "Friedhof Ebertshausen",
    "lat": 50.6270891,
    "lng": 10.570366499999999
  },
  {
    "name": "Friedhof Benshausen",
    "lat": 50.6441582,
    "lng": 10.592050100000002
  },
  {
    "name": "Friedhof Viernau",
    "lat": 50.6631235,
    "lng": 10.5608425
  },
  {
    "name": "Friedhof Schwarza",
    "lat": 50.6280388,
    "lng": 10.5330934
  },
  {
    "name": "Friedhof Herges",
    "lat": 50.6806463,
    "lng": 10.558712400000001
  },
  {
    "name": "Friedhof Bermbach",
    "lat": 50.6773927,
    "lng": 10.594488
  },
  {
    "name": "Friedhof Steinbach-Hallenberg",
    "lat": 50.7008283,
    "lng": 10.5698992
  },
  {
    "name": "Friedhof Springstille",
    "lat": 50.6882273,
    "lng": 10.5257191
  },
  {
    "name": "Friedhofsweg",
    "lat": 50.710933399999995,
    "lng": 10.5527258
  },
  {
    "name": "Friedhof Rotterode",
    "lat": 50.7110048,
    "lng": 10.5524161
  },
  {
    "name": "Friedhof Unterschönau",
    "lat": 50.7116806,
    "lng": 10.5880879
  },
  {
    "name": "Thuringia",
    "lat": 50.8367746,
    "lng": 10.5914896
  },
  {
    "name": "Friedhof Finsterbergen",
    "lat": 50.8366277,
    "lng": 10.5914032
  },
  {
    "name": "Max-Küstner-Straße 19",
    "lat": 50.8644923,
    "lng": 10.5742356
  },
  {
    "name": "Friedhof Friedrichroda",
    "lat": 50.8640682,
    "lng": 10.5737508
  },
  {
    "name": "Thuringia",
    "lat": 50.900089699999995,
    "lng": 10.5518357
  },
  {
    "name": "Friedhofshalle",
    "lat": 50.898140999999995,
    "lng": 10.5519508
  },
  {
    "name": "Friedhof Waltershausen",
    "lat": 50.899762499999994,
    "lng": 10.551818299999999
  },
  {
    "name": "Historischer Waldfriedhof Schnepfenthal",
    "lat": 50.8830989,
    "lng": 10.5807304
  },
  {
    "name": "Friedhof Schnepfenthal",
    "lat": 50.8823338,
    "lng": 10.5811425
  },
  {
    "name": "Hinter den Höfen",
    "lat": 50.935218600000006,
    "lng": 10.5721897
  },
  {
    "name": "Friedhof Fröttstädt",
    "lat": 50.935208499999995,
    "lng": 10.5723688
  },
  {
    "name": "Friedhof Hörselgau",
    "lat": 50.9221681,
    "lng": 10.5792281
  },
  {
    "name": "Friedhof Teutleben",
    "lat": 50.945613099999996,
    "lng": 10.5647179
  },
  {
    "name": "Kirchplatz",
    "lat": 50.9214433,
    "lng": 10.583789699999999
  },
  {
    "name": "Friedhof Aspach",
    "lat": 50.952270399999996,
    "lng": 10.5943277
  },
  {
    "name": "Friedhof Brüheim",
    "lat": 51.0001532,
    "lng": 10.5848052
  },
  {
    "name": "Friedhof Sonneborn",
    "lat": 50.9890568,
    "lng": 10.585614399999999
  },
  {
    "name": "Friedhof Tüngeda",
    "lat": 51.033108299999995,
    "lng": 10.5861621
  },
  {
    "name": "Friedhof Zimmern",
    "lat": 51.08363,
    "lng": 10.577319099999999
  },
  {
    "name": "Friedhof Alterstedt",
    "lat": 51.096318700000005,
    "lng": 10.550685099999999
  },
  {
    "name": "Am Schanzgraben 32a",
    "lat": 51.0973761,
    "lng": 10.5756816
  },
  {
    "name": "Friedhof Waldstedt",
    "lat": 51.0972906,
    "lng": 10.5757009
  },
  {
    "name": "Friedhof Schönstedt",
    "lat": 51.123092199999995,
    "lng": 10.5764591
  },
  {
    "name": "Friedhof Großengottern",
    "lat": 51.147190699999996,
    "lng": 10.5579474
  },
  {
    "name": "Friedhof St. Martini",
    "lat": 51.1505534,
    "lng": 10.5689757
  },
  {
    "name": "Friedhof Altengottern",
    "lat": 51.1629246,
    "lng": 10.590795499999999
  },
  {
    "name": "Friedhof Menteroda",
    "lat": 51.311569399999996,
    "lng": 10.5620248
  },
  {
    "name": "Friedhof Volkenroda",
    "lat": 51.252415799999994,
    "lng": 10.5659308
  },
  {
    "name": "Friedhof Körner",
    "lat": 51.2277723,
    "lng": 10.5843379
  },
  {
    "name": "Friedhof Friedrichsrode",
    "lat": 51.387280399999995,
    "lng": 10.560794399999999
  },
  {
    "name": "Friedhof Lipprechterode",
    "lat": 51.459997699999995,
    "lng": 10.560094
  },
  {
    "name": "Friedhof Obergebra",
    "lat": 51.4122189,
    "lng": 10.5793805
  },
  {
    "name": "Bockenweg 204",
    "lat": 51.418315899999996,
    "lng": 10.5440171
  },
  {
    "name": "Friedhof Sollstedt",
    "lat": 51.418174799999996,
    "lng": 10.5438897
  },
  {
    "name": "Friedhof Trebra",
    "lat": 51.512003199999995,
    "lng": 10.5565964
  },
  {
    "name": "Friedhof Bliedungen",
    "lat": 51.493580699999995,
    "lng": 10.5895352
  },
  {
    "name": "Friedhof Friedrichsthal",
    "lat": 51.503867199999995,
    "lng": 10.5974494
  },
  {
    "name": "Friedhof Schiedungen",
    "lat": 51.52477,
    "lng": 10.5846409
  },
  {
    "name": "Jüdischer Friedhof",
    "lat": 51.4339343,
    "lng": 10.5708156
  },
  {
    "name": "Niedergebraer Straße",
    "lat": 51.43951140000001,
    "lng": 10.579098
  },
  {
    "name": "Friedhof Bleicherode",
    "lat": 51.439173499999995,
    "lng": 10.579449499999999
  },
  {
    "name": "Friedhof Mackenrode",
    "lat": 51.552754699999994,
    "lng": 10.557353299999999
  },
  {
    "name": "Friedhof Tettenborn",
    "lat": 51.561200899999996,
    "lng": 10.554064
  },
  {
    "name": "Friedhof Holbach",
    "lat": 51.541999999999994,
    "lng": 10.5952772
  },
  {
    "name": "Friedhof Klettenberg",
    "lat": 51.5511665,
    "lng": 10.5953713
  },
  {
    "name": "FriedWald Südharz",
    "lat": 51.59265,
    "lng": 10.576172000000001
  },
  {
    "name": "Städtischer Friedhof",
    "lat": 51.599081899999995,
    "lng": 10.5601884
  },
  {
    "name": "Friedhof Wieda",
    "lat": 51.620265599999996,
    "lng": 10.581386
  },
  {
    "name": "Ehrenfriedhof Oderbrück",
    "lat": 51.784100699999996,
    "lng": 10.5547349
  },
  {
    "name": "Geißmarstraße 10",
    "lat": 51.8889959,
    "lng": 10.560618600000002
  },
  {
    "name": "Ehrenfriedhof Bad Harzburg",
    "lat": 51.8873816,
    "lng": 10.5627889
  },
  {
    "name": "Friedhof der Stadt Bad Harzburg",
    "lat": 51.8880802,
    "lng": 10.5591498
  },
  {
    "name": "Friedhof Bündheim",
    "lat": 51.89753460000001,
    "lng": 10.5505024
  },
  {
    "name": "Lower Saxony",
    "lat": 51.957440299999995,
    "lng": 10.581724099999999
  },
  {
    "name": "Friedhof Wiedelah",
    "lat": 51.9573872,
    "lng": 10.5818485
  },
  {
    "name": "Lower Saxony",
    "lat": 51.981813499999994,
    "lng": 10.548936999999999
  },
  {
    "name": "Friedhof Lengde",
    "lat": 51.981901699999995,
    "lng": 10.5492987
  },
  {
    "name": "Friedhof Wülperode",
    "lat": 51.9803249,
    "lng": 10.593668599999999
  },
  {
    "name": "Friedhof Isingerode",
    "lat": 52.0225406,
    "lng": 10.576927099999999
  },
  {
    "name": "Friedhof Göddeckenrode",
    "lat": 52.0046258,
    "lng": 10.5852594
  },
  {
    "name": "Kriegsgräberstätte Heiningen",
    "lat": 52.0720008,
    "lng": 10.5401359
  },
  {
    "name": "Parkplatz Ruheforst Heiningen",
    "lat": 52.071843199999996,
    "lng": 10.5396992
  },
  {
    "name": "Ruhewald Klostergut-Heiningen",
    "lat": 52.071747699999996,
    "lng": 10.5396553
  },
  {
    "name": "Am Friedhof",
    "lat": 52.0706226,
    "lng": 10.592187599999999
  },
  {
    "name": "Friedhof Börßum",
    "lat": 52.070243299999994,
    "lng": 10.591957599999999
  },
  {
    "name": "Hauptstraße 21",
    "lat": 50.6048263,
    "lng": 10.6276418
  },
  {
    "name": "Friedhof Mäbendorf",
    "lat": 50.6049904,
    "lng": 10.627852899999999
  },
  {
    "name": "Friedhofsweg 16",
    "lat": 50.600216100000004,
    "lng": 10.6456891
  },
  {
    "name": "Friedhof Heinrichs",
    "lat": 50.600191699999996,
    "lng": 10.6457781
  },
  {
    "name": "Friedhof Albrechts",
    "lat": 50.6183591,
    "lng": 10.6426622
  },
  {
    "name": "Friedhof Dietzhausen",
    "lat": 50.602874799999995,
    "lng": 10.5891852
  },
  {
    "name": "Friedhof Oberschönau",
    "lat": 50.716554699999996,
    "lng": 10.611982399999999
  },
  {
    "name": "Triftstraße 17A",
    "lat": 50.8027089,
    "lng": 10.6117592
  },
  {
    "name": "Friedhof Tambach-Dietharz",
    "lat": 50.802551799999996,
    "lng": 10.6119484
  },
  {
    "name": "Friedhof Altenbergen",
    "lat": 50.836548099999995,
    "lng": 10.628591
  },
  {
    "name": "Friedhof Ernstroda",
    "lat": 50.8661909,
    "lng": 10.623562699999999
  },
  {
    "name": "Friedhof Schönau vor dem Walde",
    "lat": 50.8577584,
    "lng": 10.6370726
  },
  {
    "name": "Friedhof Engelsbach",
    "lat": 50.852394499999996,
    "lng": 10.602005199999999
  },
  {
    "name": "Friedhof Cumbach",
    "lat": 50.8825479,
    "lng": 10.614015600000002
  },
  {
    "name": "Friedhof Wahlwinkel",
    "lat": 50.8982794,
    "lng": 10.603868
  },
  {
    "name": "Friedhof Leina",
    "lat": 50.905149099999996,
    "lng": 10.6296693
  },
  {
    "name": "Cemetery Gospiteroda",
    "lat": 50.8886207,
    "lng": 10.645255299999999
  },
  {
    "name": "Friedhofstraße 19",
    "lat": 50.951200899999996,
    "lng": 10.6345274
  },
  {
    "name": "Friedhof Trügleben",
    "lat": 50.951271999999996,
    "lng": 10.6346932
  },
  {
    "name": "Friedhof Eberstadt",
    "lat": 51.0039631,
    "lng": 10.6089942
  },
  {
    "name": "Friedhof Wangenheim",
    "lat": 51.0200569,
    "lng": 10.6285887
  },
  {
    "name": "Friedhof Wiegleben",
    "lat": 51.0477512,
    "lng": 10.6315286
  },
  {
    "name": "Friedhof Grumbach",
    "lat": 51.0665499,
    "lng": 10.6140505
  },
  {
    "name": "Friedhof Henningsleben",
    "lat": 51.06794,
    "lng": 10.6340725
  },
  {
    "name": "Friedhofstraße",
    "lat": 51.10392280000001,
    "lng": 10.6313116
  },
  {
    "name": "Friedhof Ufhoven",
    "lat": 51.1036587,
    "lng": 10.6313854
  },
  {
    "name": "Im Jacobifeld 3",
    "lat": 51.117787400000005,
    "lng": 10.6439363
  },
  {
    "name": "Hauptfriedhof Bad Langensalza",
    "lat": 51.1178222,
    "lng": 10.644075899999999
  },
  {
    "name": "Friedhof Thamsbrück",
    "lat": 51.1416511,
    "lng": 10.6358441
  },
  {
    "name": "Friedhof Großwelsbach",
    "lat": 51.169081600000005,
    "lng": 10.6364404
  },
  {
    "name": "Friedhof Bothenheilingen",
    "lat": 51.1851643,
    "lng": 10.6247884
  },
  {
    "name": "Friedhof Urbach",
    "lat": 51.296230599999994,
    "lng": 10.604882
  },
  {
    "name": "Friedhof Obermehler",
    "lat": 51.2712813,
    "lng": 10.5989994
  },
  {
    "name": "Friedhof Großmehlra",
    "lat": 51.2666164,
    "lng": 10.615568099999999
  },
  {
    "name": "Friedhof Kleinbrüchter",
    "lat": 51.310528299999994,
    "lng": 10.6432241
  },
  {
    "name": "Thuringia",
    "lat": 51.2426658,
    "lng": 10.6536765
  },
  {
    "name": "Friedhof Pfarrer-Bonhoeffer-Straße",
    "lat": 51.242527499999994,
    "lng": 10.6535542
  },
  {
    "name": "Friedhof Hohenbergen",
    "lat": 51.2194672,
    "lng": 10.633752399999999
  },
  {
    "name": "Friedhof Issersheilingen",
    "lat": 51.204108700000006,
    "lng": 10.648036000000001
  },
  {
    "name": "Friedhof Großbrüchter",
    "lat": 51.330178499999995,
    "lng": 10.650429800000001
  },
  {
    "name": "Friedhof Holzthaleben",
    "lat": 51.3419856,
    "lng": 10.596548499999999
  },
  {
    "name": "Friedhof Elende",
    "lat": 51.429339999999996,
    "lng": 10.6286188
  },
  {
    "name": "Friedhof Friedrichslohra",
    "lat": 51.419995500000006,
    "lng": 10.6301893
  },
  {
    "name": "Friedhof Niedergebra",
    "lat": 51.4194567,
    "lng": 10.6004855
  },
  {
    "name": "Friedhof Großlohra",
    "lat": 51.4168558,
    "lng": 10.6313891
  },
  {
    "name": "Friedhof Großwenden",
    "lat": 51.418161299999994,
    "lng": 10.6467838
  },
  {
    "name": "Friedhof Kehmstedt",
    "lat": 51.4752132,
    "lng": 10.6148907
  },
  {
    "name": "Friedhof Oberdorf",
    "lat": 51.4566064,
    "lng": 10.6445817
  },
  {
    "name": "Friedhof Etzelsrode",
    "lat": 51.5049618,
    "lng": 10.612553499999999
  },
  {
    "name": "Friedhof Pützlingen",
    "lat": 51.5215301,
    "lng": 10.622467799999999
  },
  {
    "name": "Friedhof Immenrode",
    "lat": 51.49975370000001,
    "lng": 10.6435294
  },
  {
    "name": "Friedhof Haferungen",
    "lat": 51.5087477,
    "lng": 10.6563466
  },
  {
    "name": "Friedhof Liebenrode",
    "lat": 51.547822200000006,
    "lng": 10.6317033
  },
  {
    "name": "Alter Friedhof Obersachswerfen",
    "lat": 51.5559288,
    "lng": 10.6350835
  },
  {
    "name": "Neuer Friedhof Obersachswerfen",
    "lat": 51.5575988,
    "lng": 10.6364541
  },
  {
    "name": "Friedhof Branderode",
    "lat": 51.564631999999996,
    "lng": 10.6047546
  },
  {
    "name": "Walkenrieder Str. 24",
    "lat": 51.6216066,
    "lng": 10.6246862
  },
  {
    "name": "Lower Saxony",
    "lat": 51.5867168,
    "lng": 10.6114734
  },
  {
    "name": "Friedhof Walkenried",
    "lat": 51.5870022,
    "lng": 10.611681599999999
  },
  {
    "name": "Lower Saxony",
    "lat": 51.7171355,
    "lng": 10.605069100000001
  },
  {
    "name": "Friedhof Braunlage",
    "lat": 51.716887199999995,
    "lng": 10.6053783
  },
  {
    "name": "Friedhof Suderode",
    "lat": 51.9757186,
    "lng": 10.6204688
  },
  {
    "name": "Friedhof Rimbeck",
    "lat": 51.9967579,
    "lng": 10.6233133
  },
  {
    "name": "Friedhof Bühne",
    "lat": 51.9944606,
    "lng": 10.6388489
  },
  {
    "name": "Lower Saxony",
    "lat": 52.025718399999995,
    "lng": 10.612818599999999
  },
  {
    "name": "Friedhof Hornburg",
    "lat": 52.025417999999995,
    "lng": 10.6122897
  },
  {
    "name": "Jüdischer Friedhof (Hornburg)",
    "lat": 52.026851,
    "lng": 10.6065281
  },
  {
    "name": "Friedhof Rhoden",
    "lat": 52.017299099999995,
    "lng": 10.657046699999999
  },
  {
    "name": "Friedhofsweg",
    "lat": 52.1100564,
    "lng": 10.5896467
  },
  {
    "name": "Friedhof Wittmar",
    "lat": 52.126006100000005,
    "lng": 10.6466209
  },
  {
    "name": "Friedhof Kissenbrück",
    "lat": 52.1094885,
    "lng": 10.5894899
  },
  {
    "name": "L79",
    "lat": 52.1406445,
    "lng": 10.618326200000002
  },
  {
    "name": "Friedhof Denkte",
    "lat": 52.1410212,
    "lng": 10.6181203
  },
  {
    "name": "Friedhof Neindorf (Denkte)",
    "lat": 52.127137399999995,
    "lng": 10.5821769
  },
  {
    "name": "Friedhof Bischofrod",
    "lat": 50.5384154,
    "lng": 10.6634707
  },
  {
    "name": "Friedhof Eichenberg",
    "lat": 50.546259,
    "lng": 10.657597899999999
  },
  {
    "name": "Friedhof Lengfeld",
    "lat": 50.5246652,
    "lng": 10.6546943
  },
  {
    "name": "Friedhof Neuhof",
    "lat": 50.512701799999995,
    "lng": 10.6786765
  },
  {
    "name": "Ehemaliger jüdischer Friedhof Heinrichs",
    "lat": 50.5937597,
    "lng": 10.662615
  },
  {
    "name": "Friedhof Altendambach",
    "lat": 50.5590475,
    "lng": 10.7091564
  },
  {
    "name": "Alter Zellaer Friedhof",
    "lat": 50.6564426,
    "lng": 10.666478099999999
  },
  {
    "name": "Waldfriedhof",
    "lat": 50.666405499999996,
    "lng": 10.678623199999999
  },
  {
    "name": "Friedhof Zella-Mehlis",
    "lat": 50.666254699999996,
    "lng": 10.677735
  },
  {
    "name": "Str. d. Opfer des Faschismus 35",
    "lat": 50.60451,
    "lng": 10.6958108
  },
  {
    "name": "Eigenbetrieb KDS Friedhofsverwaltung",
    "lat": 50.6052368,
    "lng": 10.6941987
  },
  {
    "name": "Jüdischer Friedhof",
    "lat": 50.6039251,
    "lng": 10.6941689
  },
  {
    "name": "Jüdischer Friedhof Suhl",
    "lat": 50.6038329,
    "lng": 10.694083
  },
  {
    "name": "Hauptfriedhof Suhl (kommunal)",
    "lat": 50.605325099999995,
    "lng": 10.6949651
  },
  {
    "name": "Friedhof Georgenthal",
    "lat": 50.8286782,
    "lng": 10.661221099999999
  },
  {
    "name": "Friedhof Nauendorf",
    "lat": 50.822368499999996,
    "lng": 10.6951206
  },
  {
    "name": "Friedhof Gräfenhain",
    "lat": 50.8241966,
    "lng": 10.707076200000001
  },
  {
    "name": "Friedhof Herrenhof",
    "lat": 50.8454621,
    "lng": 10.683961799999999
  },
  {
    "name": "Friedhof Emleben",
    "lat": 50.8942285,
    "lng": 10.6978339
  },
  {
    "name": "Cemetery Wipperoda",
    "lat": 50.8724973,
    "lng": 10.6648522
  },
  {
    "name": "Friedhof Boilstädt",
    "lat": 50.9187365,
    "lng": 10.6861649
  },
  {
    "name": "Friedhof Hohenkirchen",
    "lat": 50.851575,
    "lng": 10.703068300000002
  },
  {
    "name": "Friedhof Petriroda",
    "lat": 50.867744599999995,
    "lng": 10.7032144
  },
  {
    "name": "Friedhof Sundhausen",
    "lat": 50.931719699999995,
    "lng": 10.6753317
  },
  {
    "name": "Friedhof Sundhausen",
    "lat": 50.9317638,
    "lng": 10.675184699999999
  },
  {
    "name": "Jewish Cemetery",
    "lat": 50.9517203,
    "lng": 10.687003899999999
  },
  {
    "name": "Obertor 1",
    "lat": 50.913598199999996,
    "lng": 10.7039869
  },
  {
    "name": "Friedhof Remstädt",
    "lat": 50.9807814,
    "lng": 10.684457199999999
  },
  {
    "name": "main cemetery Gotha",
    "lat": 50.966348599999996,
    "lng": 10.7087351
  },
  {
    "name": "Gotha-Flor",
    "lat": 50.9629525,
    "lng": 10.7071544
  },
  {
    "name": "Hauptfriedhof Gotha",
    "lat": 50.9657589,
    "lng": 10.707866800000001
  },
  {
    "name": "Friedhof Warza",
    "lat": 50.995529,
    "lng": 10.6899873
  },
  {
    "name": "Friedhofstraße 16",
    "lat": 50.9908278,
    "lng": 10.6550373
  },
  {
    "name": "Friedhof Westhausen",
    "lat": 51.016653299999994,
    "lng": 10.6903109
  },
  {
    "name": "Friedhof Goldbach",
    "lat": 50.990909099999996,
    "lng": 10.655155899999999
  },
  {
    "name": "Friedhof Hochheim",
    "lat": 51.0178601,
    "lng": 10.659806699999999
  },
  {
    "name": "Friedhof Aschara",
    "lat": 51.058018499999996,
    "lng": 10.683683
  },
  {
    "name": "Friedhof Eckardtsleben",
    "lat": 51.0701508,
    "lng": 10.677882499999999
  },
  {
    "name": "Friedhof Illeben",
    "lat": 51.0824053,
    "lng": 10.6784018
  },
  {
    "name": "Friedhof Merxleben",
    "lat": 51.1218721,
    "lng": 10.6733655
  },
  {
    "name": "Friedhof Nägelstedt",
    "lat": 51.1109522,
    "lng": 10.7067052
  },
  {
    "name": "Friedhof Neunheilingen",
    "lat": 51.1896049,
    "lng": 10.674098899999999
  },
  {
    "name": "Friedhof Kleinwelsbach",
    "lat": 51.1748522,
    "lng": 10.6680269
  },
  {
    "name": "Friedhof Kirchheilingen",
    "lat": 51.1836504,
    "lng": 10.7048525
  },
  {
    "name": "Friedhof Bergstraße",
    "lat": 51.1840959,
    "lng": 10.7091709
  },
  {
    "name": "Mehrstedter Dorfstraße",
    "lat": 51.2702451,
    "lng": 10.6659775
  },
  {
    "name": "Friedhof Mehrstedt",
    "lat": 51.2701646,
    "lng": 10.6629849
  },
  {
    "name": "Friedhof Marolterode",
    "lat": 51.2286115,
    "lng": 10.682095799999999
  },
  {
    "name": "Friedhof Holzsußra",
    "lat": 51.2939559,
    "lng": 10.6948504
  },
  {
    "name": "Tobaer Hauptstraße 5",
    "lat": 51.320932000000006,
    "lng": 10.685558799999999
  },
  {
    "name": "Friedhof Toba",
    "lat": 51.318771,
    "lng": 10.6887911
  },
  {
    "name": "Friedhof Kleinberndten",
    "lat": 51.377646000000006,
    "lng": 10.663158099999999
  },
  {
    "name": "Friedhof Großberndten",
    "lat": 51.3564642,
    "lng": 10.7023002
  },
  {
    "name": "Friedhof Pustleben",
    "lat": 51.447916600000006,
    "lng": 10.6633541
  },
  {
    "name": "Friedhof Kleinwenden",
    "lat": 51.4199704,
    "lng": 10.6641528
  },
  {
    "name": "Friedhof Nohra",
    "lat": 51.4332044,
    "lng": 10.7051099
  },
  {
    "name": "Friedhof Mörbach",
    "lat": 51.4501726,
    "lng": 10.6948052
  },
  {
    "name": "Friedhof Hainrode",
    "lat": 51.415949999999995,
    "lng": 10.6978104
  },
  {
    "name": "Friedhof Mitteldorf",
    "lat": 51.4534678,
    "lng": 10.6513955
  },
  {
    "name": "Friedhof Hainrode",
    "lat": 51.415994399999995,
    "lng": 10.6977992
  },
  {
    "name": "Friedhof Großwechsungen",
    "lat": 51.4905566,
    "lng": 10.6870253
  },
  {
    "name": "Friedhof Großwechsungen",
    "lat": 51.4905548,
    "lng": 10.687023799999999
  },
  {
    "name": "Friedhof Günzerode",
    "lat": 51.5216657,
    "lng": 10.659681599999999
  },
  {
    "name": "Friedhof Hochstedt",
    "lat": 51.5220487,
    "lng": 10.6992113
  },
  {
    "name": "Friedhof Mauderode",
    "lat": 51.5453111,
    "lng": 10.692069
  },
  {
    "name": "Friedhof Gudersleben",
    "lat": 51.5540641,
    "lng": 10.6823945
  },
  {
    "name": "Kriegsgräberstätte Sülzhayn",
    "lat": 51.6016971,
    "lng": 10.6998173
  },
  {
    "name": "Friedhof Ellrich",
    "lat": 51.5859753,
    "lng": 10.6724406
  },
  {
    "name": "Karlstraße 23",
    "lat": 51.5872757,
    "lng": 10.6581157
  },
  {
    "name": "Jüdische Friedhof Ellrich",
    "lat": 51.587298399999995,
    "lng": 10.658160299999999
  },
  {
    "name": "Friedhof Werna",
    "lat": 51.5848683,
    "lng": 10.704109899999999
  },
  {
    "name": "Friedhof",
    "lat": 51.7644775,
    "lng": 10.6641499
  },
  {
    "name": "Kreuzfriedhof",
    "lat": 51.862607499999996,
    "lng": 10.682163599999999
  },
  {
    "name": "Friedhof Ilsenburg",
    "lat": 51.866862000000005,
    "lng": 10.6859123
  },
  {
    "name": "Friedhof Drübeck",
    "lat": 51.8595292,
    "lng": 10.7128883
  },
  {
    "name": "Friedhof Stapelburg",
    "lat": 51.902729099999995,
    "lng": 10.6750849
  },
  {
    "name": "Friedhof Hedeper",
    "lat": 52.067860599999996,
    "lng": 10.6885476
  },
  {
    "name": "Friedhof Remlingen",
    "lat": 52.1093751,
    "lng": 10.6714368
  },
  {
    "name": "Friedhof Münchhausen",
    "lat": 52.135538999999994,
    "lng": 10.687026099999999
  },
  {
    "name": "Friedhof Dettum",
    "lat": 52.174621699999996,
    "lng": 10.667117099999999
  },
  {
    "name": "Friedhof St. Kilian",
    "lat": 50.5291656,
    "lng": 10.7603017
  },
  {
    "name": "Friedhof Gethles",
    "lat": 50.5099023,
    "lng": 10.706030499999999
  },
  {
    "name": "Ilmenauer Str. 10",
    "lat": 50.5115975,
    "lng": 10.7603303
  },
  {
    "name": "Friedhof Schleusingen",
    "lat": 50.5117401,
    "lng": 10.7603063
  },
  {
    "name": "Friedhof Hirschbach",
    "lat": 50.563530899999996,
    "lng": 10.7371657
  },
  {
    "name": "Bocksbergstraße 10",
    "lat": 50.635981799999996,
    "lng": 10.7300923
  },
  {
    "name": "Friedhof Goldlauter-Heidersbach",
    "lat": 50.6360525,
    "lng": 10.7301205
  },
  {
    "name": "Suhler Str. 3",
    "lat": 50.6309063,
    "lng": 10.7485422
  },
  {
    "name": "Friedhof Goldlauter",
    "lat": 50.6307377,
    "lng": 10.7484463
  },
  {
    "name": "Waldfriedhof Oberhof",
    "lat": 50.7158297,
    "lng": 10.7240605
  },
  {
    "name": "Friedhof Luisenthal",
    "lat": 50.7803179,
    "lng": 10.7213283
  },
  {
    "name": "Mühlenstraße 3",
    "lat": 50.888319300000006,
    "lng": 10.7343607
  },
  {
    "name": "Friedhof Schwabhausen",
    "lat": 50.8881626,
    "lng": 10.734283399999999
  },
  {
    "name": "Friedhof Günthersleben",
    "lat": 50.901978299999996,
    "lng": 10.76268
  },
  {
    "name": "Friedhof Uelleben",
    "lat": 50.9136703,
    "lng": 10.7041133
  },
  {
    "name": "Neuer Friedhof Ohrdruf",
    "lat": 50.831809299999996,
    "lng": 10.731862699999999
  },
  {
    "name": "Soldatenfriedhof Ohrdruf",
    "lat": 50.843156699999994,
    "lng": 10.741664799999999
  },
  {
    "name": "Friedhofsweg 16",
    "lat": 50.945489,
    "lng": 10.7436358
  },
  {
    "name": "Friedhof Siebleben",
    "lat": 50.945123699999996,
    "lng": 10.743802299999999
  },
  {
    "name": "Friedhof Bufleben",
    "lat": 51.003366899999996,
    "lng": 10.737640899999999
  },
  {
    "name": "Friedhof Pfullendorf",
    "lat": 51.007926499999996,
    "lng": 10.723199099999999
  },
  {
    "name": "Friedhof Hausen",
    "lat": 51.0144656,
    "lng": 10.7268098
  },
  {
    "name": "Friedhof Ballstädt",
    "lat": 51.036556000000004,
    "lng": 10.7150765
  },
  {
    "name": "Friedhof Eschenbergen",
    "lat": 51.0253599,
    "lng": 10.7621418
  },
  {
    "name": "Friedhof Burgtonna",
    "lat": 51.067410599999995,
    "lng": 10.727381
  },
  {
    "name": "Friedhof Gräfentonna",
    "lat": 51.090536400000005,
    "lng": 10.7317748
  },
  {
    "name": "Friedhof Klettstedt",
    "lat": 51.141371299999996,
    "lng": 10.7446174
  },
  {
    "name": "Friedhof Sundhausen",
    "lat": 51.15601890000001,
    "lng": 10.712426500000001
  },
  {
    "name": "Friedhof Tottleben",
    "lat": 51.165226200000006,
    "lng": 10.7514817
  },
  {
    "name": "Friedhof Blankenburg",
    "lat": 51.20501970000001,
    "lng": 10.7486411
  },
  {
    "name": "Friedhof und Trauerhalle",
    "lat": 51.2366866,
    "lng": 10.7357385
  },
  {
    "name": "Friedhof Allmenhausen",
    "lat": 51.2367047,
    "lng": 10.7359929
  },
  {
    "name": "Friedhof Billeben",
    "lat": 51.2671995,
    "lng": 10.738415999999999
  },
  {
    "name": "Friedhof Abtsbessingen",
    "lat": 51.262306699999996,
    "lng": 10.7596464
  },
  {
    "name": "Friedhof Ebeleben",
    "lat": 51.2858333,
    "lng": 10.7331232
  },
  {
    "name": "Friedhof Wiedermuth",
    "lat": 51.305510899999994,
    "lng": 10.714571099999999
  },
  {
    "name": "Friedhof Rockstedt",
    "lat": 51.2866973,
    "lng": 10.7603118
  },
  {
    "name": "Tobaer Str. 14",
    "lat": 51.3347349,
    "lng": 10.7316845
  },
  {
    "name": "Friedhof Himmelsberg",
    "lat": 51.3343607,
    "lng": 10.7317743
  },
  {
    "name": "Friedhof Immenrode",
    "lat": 51.3687559,
    "lng": 10.7378769
  },
  {
    "name": "Rasenweg",
    "lat": 51.401040800000004,
    "lng": 10.7389358
  },
  {
    "name": "Friedhof Wernrode",
    "lat": 51.401128,
    "lng": 10.738840999999999
  },
  {
    "name": "Friedhof Straussberg",
    "lat": 51.387596599999995,
    "lng": 10.7488393
  },
  {
    "name": "Friedhof Kleinfurra",
    "lat": 51.411162,
    "lng": 10.7636947
  },
  {
    "name": "Friedhof Kleinfurra",
    "lat": 51.41191320000001,
    "lng": 10.7641175
  },
  {
    "name": "Friedhof Wolkramshausen",
    "lat": 51.4238602,
    "lng": 10.7360749
  },
  {
    "name": "Friedhof Kleinwerther",
    "lat": 51.4775514,
    "lng": 10.7338116
  },
  {
    "name": "Friedhof Großwerther",
    "lat": 51.4666997,
    "lng": 10.7567474
  },
  {
    "name": "Friedhof Kleinwechsungen",
    "lat": 51.5051093,
    "lng": 10.720597399999999
  },
  {
    "name": "Friedhof Hesserode",
    "lat": 51.499065699999996,
    "lng": 10.7362469
  },
  {
    "name": "Friedhof Herreden",
    "lat": 51.5179544,
    "lng": 10.7362024
  },
  {
    "name": "Friedhof Salza",
    "lat": 51.511666299999995,
    "lng": 10.7682971
  },
  {
    "name": "Friedhof Wollersleben",
    "lat": 51.4382158,
    "lng": 10.7246626
  },
  {
    "name": "Friedhof Rüxleben",
    "lat": 51.421345599999995,
    "lng": 10.759476999999999
  },
  {
    "name": "Ellen Barthel",
    "lat": 51.4201311,
    "lng": 10.7609082
  },
  {
    "name": "Friedhof Rothesütte",
    "lat": 51.63033,
    "lng": 10.722391300000002
  },
  {
    "name": "Friedhof Appenrode",
    "lat": 51.574129899999996,
    "lng": 10.730903699999999
  },
  {
    "name": "Friedhof Woffleben",
    "lat": 51.5562237,
    "lng": 10.7270565
  },
  {
    "name": "Guderslebener Straße",
    "lat": 51.5556595,
    "lng": 10.7270895
  },
  {
    "name": "Friedhof Hörningen",
    "lat": 51.5398691,
    "lng": 10.718235199999999
  },
  {
    "name": "Friedhof Benneckenstein",
    "lat": 51.668941999999994,
    "lng": 10.7212008
  },
  {
    "name": "Friedhof Darlingerode",
    "lat": 51.8459897,
    "lng": 10.731524
  },
  {
    "name": "Friedhof Hasserode",
    "lat": 51.8272696,
    "lng": 10.757292
  },
  {
    "name": "Städt. Friedhöfe Wernigerode",
    "lat": 51.827319599999996,
    "lng": 10.7581182
  },
  {
    "name": "Zentralfriedhof Wernigerode",
    "lat": 51.8274577,
    "lng": 10.7582934
  },
  {
    "name": "Str. d. Republik 1",
    "lat": 51.8488226,
    "lng": 10.735359299999999
  },
  {
    "name": "Friedhof Winnigstedt",
    "lat": 52.069576000000005,
    "lng": 10.7618765
  },
  {
    "name": "L290 36",
    "lat": 52.1437052,
    "lng": 10.766340999999999
  },
  {
    "name": "Friedhof Schöppenstedt",
    "lat": 52.1441604,
    "lng": 10.767874899999999
  },
  {
    "name": "Lower Saxony",
    "lat": 52.1920502,
    "lng": 10.706707699999999
  },
  {
    "name": "Evessen, Friedhof",
    "lat": 52.191992199999994,
    "lng": 10.706909999999999
  },
  {
    "name": "Friedhof",
    "lat": 52.1778677,
    "lng": 10.749283199999999
  },
  {
    "name": "Friedhof Wiedersbach",
    "lat": 50.475346599999995,
    "lng": 10.799447599999999
  },
  {
    "name": "Friedhof Bürden",
    "lat": 50.4405516,
    "lng": 10.801216
  },
  {
    "name": "Friedhof Hinternah",
    "lat": 50.5194145,
    "lng": 10.7923539
  },
  {
    "name": "Friedhof Waldau",
    "lat": 50.4989372,
    "lng": 10.8205379
  },
  {
    "name": "Am Sättel 15",
    "lat": 50.5196348,
    "lng": 10.7640417
  },
  {
    "name": "Ehemaliger jüdischer Friedhof",
    "lat": 50.5198059,
    "lng": 10.7640127
  },
  {
    "name": "Friedhof Schleusingerneundorf",
    "lat": 50.537733599999996,
    "lng": 10.820347199999999
  },
  {
    "name": "Friedhof Vesser",
    "lat": 50.5961346,
    "lng": 10.7909015
  },
  {
    "name": "Friedhof Schmiedefeld am Rennsteig",
    "lat": 50.604992499999994,
    "lng": 10.821433599999999
  },
  {
    "name": "Friedhof Gehlberg",
    "lat": 50.6760982,
    "lng": 10.790640699999999
  },
  {
    "name": "Friedhof Crawinkel",
    "lat": 50.783525,
    "lng": 10.7919282
  },
  {
    "name": "Friedhof Wölfis",
    "lat": 50.8071625,
    "lng": 10.7770745
  },
  {
    "name": "RuheForst Geratal",
    "lat": 50.75314890000001,
    "lng": 10.7809694
  },
  {
    "name": "Friedhof Frankenhain",
    "lat": 50.7586357,
    "lng": 10.785633800000001
  },
  {
    "name": "Thuringia",
    "lat": 50.7509515,
    "lng": 10.812244699999999
  },
  {
    "name": "Friedhof Gräfenroda",
    "lat": 50.7509951,
    "lng": 10.8122712
  },
  {
    "name": "Osterwieck",
    "lat": 51.9738441,
    "lng": 10.719028699999999
  },
  {
    "name": "Friedhof Osterwieck",
    "lat": 51.9730467,
    "lng": 10.7179974
  },
  {
    "name": "Arlesberger Friedhof",
    "lat": 50.71681960000001,
    "lng": 10.8206206
  },
  {
    "name": "Waldfriedhof Geschwenda",
    "lat": 50.7235468,
    "lng": 10.8202237
  },
  {
    "name": "Friedhof Wechmar",
    "lat": 50.890897800000005,
    "lng": 10.7744316
  },
  {
    "name": "Friedhof Tüttleben",
    "lat": 50.943665800000005,
    "lng": 10.7940762
  },
  {
    "name": "Friedhof Seebergen",
    "lat": 50.919420699999996,
    "lng": 10.8033643
  },
  {
    "name": "Friedhof Mühlberg",
    "lat": 50.8673721,
    "lng": 10.823155999999999
  },
  {
    "name": "Friedhof Bruchstedt",
    "lat": 51.1845808,
    "lng": 10.7885607
  },
  {
    "name": "Friedhof Haussömmern",
    "lat": 51.1915049,
    "lng": 10.818094700000001
  },
  {
    "name": "Friedhof Friemar",
    "lat": 50.976994399999995,
    "lng": 10.791646499999999
  },
  {
    "name": "Friedhof Pferdingsleben",
    "lat": 50.9702583,
    "lng": 10.822686700000002
  },
  {
    "name": "Friedhof Kleinurleben",
    "lat": 51.1549864,
    "lng": 10.7699853
  },
  {
    "name": "Friedhof Großurleben",
    "lat": 51.1596269,
    "lng": 10.766040700000001
  },
  {
    "name": "Friedhof Kleinvargula",
    "lat": 51.1281969,
    "lng": 10.802553
  },
  {
    "name": "Schulpl. 11",
    "lat": 51.0045274,
    "lng": 10.7830189
  },
  {
    "name": "Friedhof Molschleben",
    "lat": 51.007307,
    "lng": 10.779872000000001
  },
  {
    "name": "Friedhof Tröchtelborn",
    "lat": 50.991514699999996,
    "lng": 10.818310600000002
  },
  {
    "name": "Friedhof Gierstädt",
    "lat": 51.0405387,
    "lng": 10.8246219
  },
  {
    "name": "Friedhof Großvargula",
    "lat": 51.117770099999994,
    "lng": 10.7848472
  },
  {
    "name": "Friedhof Döllstädt",
    "lat": 51.0817328,
    "lng": 10.8095346
  },
  {
    "name": "Friedhof Freienbessingen",
    "lat": 51.232377199999995,
    "lng": 10.771265
  },
  {
    "name": "Friedhof Mittelsömmern",
    "lat": 51.207782099999996,
    "lng": 10.8101744
  },
  {
    "name": "Friedhof Hornsömmern",
    "lat": 51.2124106,
    "lng": 10.817722199999999
  },
  {
    "name": "Friedhof Wolferschwenda",
    "lat": 51.236784099999994,
    "lng": 10.8045101
  },
  {
    "name": "Friedhof Wenigenehrich",
    "lat": 51.253943299999996,
    "lng": 10.8043436
  },
  {
    "name": "Friedhof Bellstedt",
    "lat": 51.2713466,
    "lng": 10.7869634
  },
  {
    "name": "Friedhof Thüringenhausen",
    "lat": 51.270061899999995,
    "lng": 10.8134562
  },
  {
    "name": "Friedhof Schernberg",
    "lat": 51.3246902,
    "lng": 10.773755699999999
  },
  {
    "name": "Friedhof Thalebra",
    "lat": 51.3034964,
    "lng": 10.7960014
  },
  {
    "name": "Unter den Linden 37",
    "lat": 51.301409199999995,
    "lng": 10.771322999999999
  },
  {
    "name": "Friedhof Gundersleben",
    "lat": 51.301616499999994,
    "lng": 10.7677167
  },
  {
    "name": "Friedhof Hain",
    "lat": 51.433155899999996,
    "lng": 10.7873114
  },
  {
    "name": "Friedhof Steinbrücken",
    "lat": 51.4578664,
    "lng": 10.789853599999999
  },
  {
    "name": "Friedhof Großfurra",
    "lat": 51.3900405,
    "lng": 10.7984303
  },
  {
    "name": "Friedhof Sundhausen",
    "lat": 51.4696071,
    "lng": 10.816448099999999
  },
  {
    "name": "Friedhof Krimderode",
    "lat": 51.532973399999996,
    "lng": 10.7880603
  },
  {
    "name": "Friedhof Niedersachswerfen",
    "lat": 51.5539616,
    "lng": 10.769827999999999
  },
  {
    "name": "Friedhof Rüdigsdorf",
    "lat": 51.5426462,
    "lng": 10.815809400000001
  },
  {
    "name": "Friedhof Harzungen",
    "lat": 51.5563929,
    "lng": 10.8132564
  },
  {
    "name": "Alter Friedhof Nordhausen",
    "lat": 51.505211599999996,
    "lng": 10.8086036
  },
  {
    "name": "Jewish Cemetery Nordhausen",
    "lat": 51.4984666,
    "lng": 10.805828
  },
  {
    "name": "Friedhofsverwaltung",
    "lat": 51.4976367,
    "lng": 10.8147256
  },
  {
    "name": "Stadtverwaltung Grünflächen u. Friedhöfe",
    "lat": 51.4976367,
    "lng": 10.8147256
  },
  {
    "name": "Ehrenfriedhof Nordhausen",
    "lat": 51.4965407,
    "lng": 10.814767999999999
  },
  {
    "name": "Hauptfriedhof Hintereingang",
    "lat": 51.4982566,
    "lng": 10.817129999999999
  },
  {
    "name": "Hauptfriedhof Nordhausen",
    "lat": 51.4963723,
    "lng": 10.8168556
  },
  {
    "name": "Friedhof Ilfeld",
    "lat": 51.5818194,
    "lng": 10.780064699999999
  },
  {
    "name": "Friedhof Wiegersdorf",
    "lat": 51.577658199999995,
    "lng": 10.797729
  },
  {
    "name": "Friedhof Osterode",
    "lat": 51.5640516,
    "lng": 10.8162981
  },
  {
    "name": "Friedhof",
    "lat": 51.771110099999994,
    "lng": 10.797710400000001
  },
  {
    "name": "Bohlweg 1",
    "lat": 51.827757299999995,
    "lng": 10.795297
  },
  {
    "name": "Friedhof Sankt Theobaldi",
    "lat": 51.827999999999996,
    "lng": 10.79431
  },
  {
    "name": "Heerstraße 2",
    "lat": 51.9089989,
    "lng": 10.7965685
  },
  {
    "name": "Dorfstraße 34",
    "lat": 51.8676344,
    "lng": 10.8056289
  },
  {
    "name": "Friedhof Reddeber",
    "lat": 51.8675437,
    "lng": 10.805100999999999
  },
  {
    "name": "B244 4",
    "lat": 51.9450073,
    "lng": 10.8230057
  },
  {
    "name": "Krypta",
    "lat": 51.9889139,
    "lng": 10.7866246
  },
  {
    "name": "Brautor 283A",
    "lat": 51.97672980000001,
    "lng": 10.827310899999999
  },
  {
    "name": "Osterwieck",
    "lat": 52.0135943,
    "lng": 10.7798613
  },
  {
    "name": "Friedhof",
    "lat": 52.013642499999996,
    "lng": 10.780174899999999
  },
  {
    "name": "Friedhofsweg 6",
    "lat": 52.061613699999995,
    "lng": 10.7794501
  },
  {
    "name": "Alter Friedhof",
    "lat": 52.06771020000001,
    "lng": 10.7642744
  },
  {
    "name": "Friedhof Gevensleben",
    "lat": 52.0748451,
    "lng": 10.8237252
  },
  {
    "name": "Gräberfeld von Gevensleben",
    "lat": 52.0763788,
    "lng": 10.8254061
  },
  {
    "name": "Friedhof",
    "lat": 52.1668691,
    "lng": 10.791521
  },
  {
    "name": "FriedWald Elm",
    "lat": 52.209410999999996,
    "lng": 10.812339
  },
  {
    "name": "Anstaltsfriedhof",
    "lat": 52.2398909,
    "lng": 10.8135811
  },
  {
    "name": "Samuel-Hahnemann-Straße 5",
    "lat": 52.24306910000001,
    "lng": 10.817359999999999
  },
  {
    "name": "Malerkapelle",
    "lat": 52.2425247,
    "lng": 10.817552800000001
  },
  {
    "name": "Friedhof Lauingen",
    "lat": 52.2652715,
    "lng": 10.7858913
  },
  {
    "name": "Am Dorfe 37",
    "lat": 52.2624813,
    "lng": 10.751680799999999
  },
  {
    "name": "Bornumer Friedhof",
    "lat": 52.262129699999996,
    "lng": 10.7515678
  },
  {
    "name": "Friedhof Goßmannsrod",
    "lat": 50.430301899999996,
    "lng": 10.8521266
  },
  {
    "name": "Friedhof Harras",
    "lat": 50.4079342,
    "lng": 10.8597592
  },
  {
    "name": "Friedhof Brünn",
    "lat": 50.451107199999996,
    "lng": 10.8558215
  },
  {
    "name": "Friedhof Brattendorf",
    "lat": 50.4660313,
    "lng": 10.8571984
  },
  {
    "name": "Friedhof Schwarzbach",
    "lat": 50.4853884,
    "lng": 10.8318313
  },
  {
    "name": "Friedhof Merbelsrod",
    "lat": 50.4896676,
    "lng": 10.8467311
  },
  {
    "name": "Friedhof Langenbach",
    "lat": 50.510468,
    "lng": 10.845732199999999
  },
  {
    "name": "Friedhof Biberschlag",
    "lat": 50.494309099999995,
    "lng": 10.8642381
  },
  {
    "name": "Friedhof Steinbach",
    "lat": 50.523258899999995,
    "lng": 10.843045199999999
  },
  {
    "name": "Friedhof Frauenwald",
    "lat": 50.58275270000001,
    "lng": 10.8571498
  },
  {
    "name": "Friedhof Stützerbach",
    "lat": 50.6385174,
    "lng": 10.856855999999999
  },
  {
    "name": "Friedhof Dreieinigkeit",
    "lat": 50.634677499999995,
    "lng": 10.864103799999999
  },
  {
    "name": "Friedhof Schönau",
    "lat": 50.51967330000001,
    "lng": 10.8690201
  },
  {
    "name": "Thuringia",
    "lat": 50.717048999999996,
    "lng": 10.848139900000001
  },
  {
    "name": "Friedhof Geraberg",
    "lat": 50.7171538,
    "lng": 10.8479111
  },
  {
    "name": "Friedhof Elgersburg",
    "lat": 50.7021649,
    "lng": 10.8548174
  },
  {
    "name": "Friedhof Gossel",
    "lat": 50.8007061,
    "lng": 10.853417
  },
  {
    "name": "Friedhof Liebenstein",
    "lat": 50.7655126,
    "lng": 10.8463905
  },
  {
    "name": "Oberer Friedhof",
    "lat": 50.6817936,
    "lng": 10.8581264
  },
  {
    "name": "Unterer Friedhof",
    "lat": 50.682427499999996,
    "lng": 10.867429
  },
  {
    "name": "Friedhof Angelroda",
    "lat": 50.7458354,
    "lng": 10.8658602
  },
  {
    "name": "Friedhof Rippersroda",
    "lat": 50.7574738,
    "lng": 10.8734928
  },
  {
    "name": "Friedhof Grabsleben",
    "lat": 50.9365549,
    "lng": 10.836492699999999
  },
  {
    "name": "Friedhof Cobstädt",
    "lat": 50.9239603,
    "lng": 10.834907099999999
  },
  {
    "name": "Friedhof Großrettbach",
    "lat": 50.9238868,
    "lng": 10.8610948
  },
  {
    "name": "Friedhof Wandersleben",
    "lat": 50.8970345,
    "lng": 10.8543594
  },
  {
    "name": "Friedhof Röhrensee",
    "lat": 50.8540243,
    "lng": 10.8517393
  },
  {
    "name": "Hauptstraße 118",
    "lat": 50.96444090000001,
    "lng": 10.843364
  },
  {
    "name": "Friedhof Nottleben",
    "lat": 50.9644183,
    "lng": 10.8433586
  },
  {
    "name": "Friedhof Bienstädt",
    "lat": 51.017055600000006,
    "lng": 10.8514998
  },
  {
    "name": "Friedhof Zimmernsupra",
    "lat": 50.9895618,
    "lng": 10.8708282
  },
  {
    "name": "Friedhof Töttelstädt",
    "lat": 51.0101273,
    "lng": 10.8802726
  },
  {
    "name": "Friedhof Kleinfahner",
    "lat": 51.0396198,
    "lng": 10.849556399999999
  },
  {
    "name": "Friedhof Großfahner",
    "lat": 51.0567788,
    "lng": 10.8277564
  },
  {
    "name": "Friedhof Dachwig",
    "lat": 51.079046,
    "lng": 10.8627291
  },
  {
    "name": "Friedhof Bad Tennstedt",
    "lat": 51.152100600000004,
    "lng": 10.8396707
  },
  {
    "name": "Friedhof Ballhausen",
    "lat": 51.1582246,
    "lng": 10.875597599999999
  },
  {
    "name": "Friedhof Herbsleben",
    "lat": 51.1177792,
    "lng": 10.839418499999999
  },
  {
    "name": "Friedhof Kutzleben",
    "lat": 51.195094,
    "lng": 10.863188899999999
  },
  {
    "name": "Friedhof Rohnstedt",
    "lat": 51.226712899999995,
    "lng": 10.8442515
  },
  {
    "name": "Friedhof Großenehrich",
    "lat": 51.2495687,
    "lng": 10.8362307
  },
  {
    "name": "Friedhof Bliederstedt",
    "lat": 51.26809970000001,
    "lng": 10.857737499999999
  },
  {
    "name": "Friedhof Niederspier",
    "lat": 51.288801199999995,
    "lng": 10.842792399999999
  },
  {
    "name": "Friedhof Oberspier",
    "lat": 51.3105297,
    "lng": 10.849457
  },
  {
    "name": "Friedhof Hohenebra",
    "lat": 51.3057099,
    "lng": 10.819631399999999
  },
  {
    "name": "Friedhof Bebra",
    "lat": 51.3656303,
    "lng": 10.840046599999999
  },
  {
    "name": "Friedhof Jechaburg",
    "lat": 51.3727854,
    "lng": 10.8369714
  },
  {
    "name": "Jüdischer Friedhof (Sondershausen)",
    "lat": 51.361143899999995,
    "lng": 10.8698455
  },
  {
    "name": "Friedhof Stockhausen",
    "lat": 51.383530099999994,
    "lng": 10.8420553
  },
  {
    "name": "Sondershäuser Weg",
    "lat": 51.4458099,
    "lng": 10.8402424
  },
  {
    "name": "Friedhof Uthleben",
    "lat": 51.446275799999995,
    "lng": 10.8404013
  },
  {
    "name": "Friedhof Bielen",
    "lat": 51.4858172,
    "lng": 10.846106599999999
  },
  {
    "name": "Friedhof Windehausen",
    "lat": 51.4658817,
    "lng": 10.8780966
  },
  {
    "name": "Friedhof Leimbach",
    "lat": 51.4988239,
    "lng": 10.865376999999999
  },
  {
    "name": "Bockstraße 24",
    "lat": 51.5183859,
    "lng": 10.8741966
  },
  {
    "name": "Friedhof Steigerthal",
    "lat": 51.518553,
    "lng": 10.873841299999999
  },
  {
    "name": "Friedhof Petersdorf",
    "lat": 51.5273584,
    "lng": 10.8253784
  },
  {
    "name": "Friedhof Buchholz",
    "lat": 51.539536299999995,
    "lng": 10.864163099999999
  },
  {
    "name": "Friedhof Neustadt/Harz",
    "lat": 51.5587204,
    "lng": 10.8392036
  },
  {
    "name": "Friedhof Herrmannsacker",
    "lat": 51.544280799999996,
    "lng": 10.8810108
  },
  {
    "name": "Hagenstraße",
    "lat": 51.692747,
    "lng": 10.848073399999999
  },
  {
    "name": "Friedhof",
    "lat": 51.6925405,
    "lng": 10.847684400000002
  },
  {
    "name": "38889",
    "lat": 51.7520391,
    "lng": 10.847815899999999
  },
  {
    "name": "Friedhof Rübeland",
    "lat": 51.7520398,
    "lng": 10.8477904
  },
  {
    "name": "Friedhof Kreuztal",
    "lat": 51.7567344,
    "lng": 10.864056399999999
  },
  {
    "name": "Cemetery",
    "lat": 51.834748499999996,
    "lng": 10.8648056
  },
  {
    "name": "Friedhof Minsleben",
    "lat": 51.8666347,
    "lng": 10.8289478
  },
  {
    "name": "Friedhof Heudeber",
    "lat": 51.9061065,
    "lng": 10.8427879
  },
  {
    "name": "Friedhof Dardesheim",
    "lat": 51.9766208,
    "lng": 10.8291079
  },
  {
    "name": "Dedelebener Str. 183-198",
    "lat": 52.021830699999995,
    "lng": 10.839175
  },
  {
    "name": "Friedhof Rohrsheim",
    "lat": 52.0222542,
    "lng": 10.838879000000002
  },
  {
    "name": "Gräberfeld von Beierstedt",
    "lat": 52.0856916,
    "lng": 10.8454635
  },
  {
    "name": "Friedhof Watenstedt",
    "lat": 52.088939599999996,
    "lng": 10.8397518
  },
  {
    "name": "Friedhof Ingeleben",
    "lat": 52.108817099999996,
    "lng": 10.8740656
  },
  {
    "name": "Friedhof Räbke",
    "lat": 52.1945103,
    "lng": 10.875396
  },
  {
    "name": "Friedhof Ochsendorf",
    "lat": 52.3044744,
    "lng": 10.816924199999999
  },
  {
    "name": "Friedhof Rottenbach",
    "lat": 50.3823379,
    "lng": 10.9278429
  },
  {
    "name": "Helmstedter Straße",
    "lat": 52.245818799999995,
    "lng": 10.8239551
  },
  {
    "name": "Friedhof Schickelsheim",
    "lat": 52.251424799999995,
    "lng": 10.867998499999999
  },
  {
    "name": "L644",
    "lat": 52.2510222,
    "lng": 10.8683924
  },
  {
    "name": "Cemetery Konigslutter",
    "lat": 52.2462035,
    "lng": 10.8234587
  },
  {
    "name": "Friedhof",
    "lat": 52.2216003,
    "lng": 10.857963300000002
  },
  {
    "name": "Friedhof Crock",
    "lat": 50.457895,
    "lng": 10.8833261
  },
  {
    "name": "Stadtweg 7",
    "lat": 50.474048499999995,
    "lng": 10.908474199999999
  },
  {
    "name": "Friedhof Waffenrod-Hinterrod",
    "lat": 50.47411880000001,
    "lng": 10.908565699999999
  },
  {
    "name": "Friedhof Hirschendorf",
    "lat": 50.4551869,
    "lng": 10.9152557
  },
  {
    "name": "Schulweg 4",
    "lat": 50.49809870000001,
    "lng": 10.904071499999999
  },
  {
    "name": "Friedhof Schnett",
    "lat": 50.497935999999996,
    "lng": 10.903654099999999
  },
  {
    "name": "Friedhof Einsiedel",
    "lat": 50.491145499999995,
    "lng": 10.9071968
  },
  {
    "name": "Friedhof Heubach",
    "lat": 50.5053969,
    "lng": 10.9321842
  },
  {
    "name": "Friedhof Fehrenbach",
    "lat": 50.5027069,
    "lng": 10.9355762
  },
  {
    "name": "Friedhof Eisfeld",
    "lat": 50.422711299999996,
    "lng": 10.910308899999999
  },
  {
    "name": "Friedhof Gießübel",
    "lat": 50.534989499999995,
    "lng": 10.9138045
  },
  {
    "name": "Friedhof Schönbrunn",
    "lat": 50.5236283,
    "lng": 10.8802858
  },
  {
    "name": "Erfurter Str. 12",
    "lat": 50.689244300000006,
    "lng": 10.911587299999999
  },
  {
    "name": "Ilmenauer Friedhof",
    "lat": 50.6892372,
    "lng": 10.9112043
  },
  {
    "name": "Friedhof Roda",
    "lat": 50.696352999999995,
    "lng": 10.891387799999999
  },
  {
    "name": "Kirchberg 9",
    "lat": 50.7248735,
    "lng": 10.8914663
  },
  {
    "name": "Friedhof Martinroda",
    "lat": 50.7251013,
    "lng": 10.8916163
  },
  {
    "name": "Friedhof Neusiß",
    "lat": 50.744990099999995,
    "lng": 10.8912733
  },
  {
    "name": "Friedhof Kleinbreitenbach",
    "lat": 50.7695583,
    "lng": 10.914493799999999
  },
  {
    "name": "Friedhof Bittstädt",
    "lat": 50.8340375,
    "lng": 10.889389399999999
  },
  {
    "name": "Friedhof Espenfeld",
    "lat": 50.810958299999996,
    "lng": 10.8929779
  },
  {
    "name": "Friedhof Dosdorf",
    "lat": 50.7994184,
    "lng": 10.911895399999999
  },
  {
    "name": "Friedhof Plaue",
    "lat": 50.7803629,
    "lng": 10.8969873
  },
  {
    "name": "Jüdischer Friedhof Plaue",
    "lat": 50.7794445,
    "lng": 10.8960787
  },
  {
    "name": "Am Pfarrgarten 6",
    "lat": 50.9685815,
    "lng": 10.8857088
  },
  {
    "name": "Friedhof Ermstedt",
    "lat": 50.968588999999994,
    "lng": 10.8857286
  },
  {
    "name": "Friedhof Gottstedt",
    "lat": 50.96946510000001,
    "lng": 10.911299099999999
  },
  {
    "name": "Friedhof Frienstedt",
    "lat": 50.9561061,
    "lng": 10.9127301
  },
  {
    "name": "Friedhof Gamstädt",
    "lat": 50.951019599999995,
    "lng": 10.8824723
  },
  {
    "name": "Friedhof Apfelstädt",
    "lat": 50.9005349,
    "lng": 10.8872213
  },
  {
    "name": "Friedhof Sülzenbrücken",
    "lat": 50.887297,
    "lng": 10.8917057
  },
  {
    "name": "Friedhof Kornhochheim",
    "lat": 50.9010016,
    "lng": 10.9158869
  },
  {
    "name": "Friedhof Neudietendorf",
    "lat": 50.9112984,
    "lng": 10.9106281
  },
  {
    "name": "Friedhof Kleinrettbach",
    "lat": 50.9335331,
    "lng": 10.8850682
  },
  {
    "name": "Friedhof Ingersleben",
    "lat": 50.9208479,
    "lng": 10.9342287
  },
  {
    "name": "Die Untergasse 22",
    "lat": 50.863572299999994,
    "lng": 10.898674399999999
  },
  {
    "name": "Friedhof Haarhausen",
    "lat": 50.8634371,
    "lng": 10.898547500000001
  },
  {
    "name": "Am Anthügel",
    "lat": 50.853960699999995,
    "lng": 10.8871822
  },
  {
    "name": "Friedhof Holzhausen",
    "lat": 50.8539392,
    "lng": 10.8871948
  },
  {
    "name": "Friedhof Rehestädt",
    "lat": 50.868212799999995,
    "lng": 10.9235881
  },
  {
    "name": "Friedhof Friedrichsdorf",
    "lat": 51.0259411,
    "lng": 10.9115165
  },
  {
    "name": "Friedhof Andisleben",
    "lat": 51.0836494,
    "lng": 10.9283224
  },
  {
    "name": "Friedhof Walschleben",
    "lat": 51.065541599999996,
    "lng": 10.933700499999999
  },
  {
    "name": "Friedhof Witterda",
    "lat": 51.0341391,
    "lng": 10.8876964
  },
  {
    "name": "Friedhof Gebesee",
    "lat": 51.113833299999996,
    "lng": 10.9334489
  },
  {
    "name": "Friedhof St Vitus",
    "lat": 51.1568702,
    "lng": 10.8939314
  },
  {
    "name": "Friedhof Großballhausen",
    "lat": 51.1570847,
    "lng": 10.8944969
  },
  {
    "name": "Friedhof Schwerstedt",
    "lat": 51.156045,
    "lng": 10.921731099999999
  },
  {
    "name": "Friedhofsweg 55",
    "lat": 51.1873664,
    "lng": 10.895456099999999
  },
  {
    "name": "Friedhof Lützensömmern",
    "lat": 51.187354899999995,
    "lng": 10.895416599999999
  },
  {
    "name": "Friedhof Gangloffsömmern",
    "lat": 51.191691,
    "lng": 10.9338988
  },
  {
    "name": "Friedhof Westgreußen",
    "lat": 51.236313599999995,
    "lng": 10.919095
  },
  {
    "name": "Friedhof Wasserthaleben",
    "lat": 51.2596412,
    "lng": 10.896664999999999
  },
  {
    "name": "Friedhof Otterstedt",
    "lat": 51.2716147,
    "lng": 10.8799951
  },
  {
    "name": "Friedhof Westerengel",
    "lat": 51.2849855,
    "lng": 10.9027266
  },
  {
    "name": "Friedhof Kirchengel",
    "lat": 51.284573099999996,
    "lng": 10.9149143
  },
  {
    "name": "Friedhof Jecha",
    "lat": 51.3576787,
    "lng": 10.901026199999999
  },
  {
    "name": "Hauptfriedhof Sondershausen",
    "lat": 51.3743796,
    "lng": 10.882867
  },
  {
    "name": "Friedhofsverwaltung",
    "lat": 51.373848599999995,
    "lng": 10.8812087
  },
  {
    "name": "Friedhof Urbach",
    "lat": 51.477660300000004,
    "lng": 10.9024444
  },
  {
    "name": "Friedhof Hamma",
    "lat": 51.428318,
    "lng": 10.895897999999999
  },
  {
    "name": "Thuringia",
    "lat": 51.4452289,
    "lng": 10.883735
  },
  {
    "name": "Friedhof Heringen/Helme",
    "lat": 51.445362499999995,
    "lng": 10.8834798
  },
  {
    "name": "Friedhof Auleben",
    "lat": 51.4260361,
    "lng": 10.9364831
  },
  {
    "name": "Friedhof Rodishain",
    "lat": 51.5377983,
    "lng": 10.9198314
  },
  {
    "name": "RuheForst Falkenstein",
    "lat": 51.662569999999995,
    "lng": 10.88492
  },
  {
    "name": "Friedhof Stiege",
    "lat": 51.66269750000001,
    "lng": 10.8813357
  },
  {
    "name": "Friedhof Hüttenrode",
    "lat": 51.773083799999995,
    "lng": 10.907520499999999
  },
  {
    "name": "Friedhof Kloster Michaelstein",
    "lat": 51.8074541,
    "lng": 10.913130299999999
  },
  {
    "name": "Friedhof Heimburg",
    "lat": 51.824531,
    "lng": 10.9154843
  },
  {
    "name": "Huy",
    "lat": 51.9844896,
    "lng": 10.8940709
  },
  {
    "name": "Friedhof Badersleben",
    "lat": 51.984353399999996,
    "lng": 10.8940746
  },
  {
    "name": "Hinter dem Knick 26A",
    "lat": 51.982241099999996,
    "lng": 10.885883
  },
  {
    "name": "Friedhof Athenstedt",
    "lat": 51.9390953,
    "lng": 10.9139977
  },
  {
    "name": "Friedhof Derenburg",
    "lat": 51.8691538,
    "lng": 10.9168364
  },
  {
    "name": "Huy",
    "lat": 52.0333514,
    "lng": 10.895314899999999
  },
  {
    "name": "Friedhof Dedeleben",
    "lat": 52.0335337,
    "lng": 10.89565
  },
  {
    "name": "Schulstraße 9",
    "lat": 52.0801503,
    "lng": 10.900182800000001
  },
  {
    "name": "Friedhof Jerxheim",
    "lat": 52.080562799999996,
    "lng": 10.8996237
  },
  {
    "name": "Friedhofsweg",
    "lat": 52.095111599999996,
    "lng": 10.923065399999999
  },
  {
    "name": "Friedhof Söllingen",
    "lat": 52.095093000000006,
    "lng": 10.922599499999999
  },
  {
    "name": "Friedhof Vogelsdorf",
    "lat": 52.0114312,
    "lng": 10.8975081
  },
  {
    "name": "Friedhof Warberg",
    "lat": 52.179834299999996,
    "lng": 10.922364600000002
  },
  {
    "name": "Friedhof",
    "lat": 52.2066429,
    "lng": 10.9150995
  },
  {
    "name": "Friedhof Twieflingen",
    "lat": 52.1276764,
    "lng": 10.91363
  },
  {
    "name": "Lower Saxony",
    "lat": 52.246229500000005,
    "lng": 10.915335100000002
  },
  {
    "name": "Friedhof Süpplingenburg",
    "lat": 52.2461251,
    "lng": 10.915286799999999
  },
  {
    "name": "Am Heimkenberg",
    "lat": 52.2247919,
    "lng": 10.9146118
  },
  {
    "name": "Friedhof Süpplingen",
    "lat": 52.224565399999996,
    "lng": 10.9139889
  },
  {
    "name": "Friedhof Ahmstorf",
    "lat": 52.3165242,
    "lng": 10.908552199999999
  },
  {
    "name": "Friedhof Klein Sisbeck",
    "lat": 52.3546152,
    "lng": 10.904014799999999
  },
  {
    "name": "Friedhof Neukirchen",
    "lat": 50.3472018,
    "lng": 10.964675999999999
  },
  {
    "name": "Friedhof Truckendorf",
    "lat": 50.3676362,
    "lng": 10.9704739
  },
  {
    "name": "Friedhof Sachsenbrunn",
    "lat": 50.442772999999995,
    "lng": 10.945457000000001
  },
  {
    "name": "Friedhof Bachfeld",
    "lat": 50.4100841,
    "lng": 10.9767273
  },
  {
    "name": "Friedhof Katzberg",
    "lat": 50.3958471,
    "lng": 10.9762764
  },
  {
    "name": "Friedhof Schirnrod",
    "lat": 50.4536169,
    "lng": 10.9745575
  },
  {
    "name": "Friedhof Masserberg",
    "lat": 50.521342499999996,
    "lng": 10.969360600000002
  },
  {
    "name": "Friedhof Altenfeld",
    "lat": 50.565377399999996,
    "lng": 10.958501
  },
  {
    "name": "Am Friedhof",
    "lat": 50.5862619,
    "lng": 10.935131799999999
  },
  {
    "name": "Friedhof Neustadt am Rennsteig",
    "lat": 50.5865356,
    "lng": 10.9352488
  },
  {
    "name": "Friedhof Oehrenstock",
    "lat": 50.660711,
    "lng": 10.9438721
  },
  {
    "name": "Friedhof",
    "lat": 50.6686122,
    "lng": 10.975197399999999
  },
  {
    "name": "Friedhof Langewiesen",
    "lat": 50.668684899999995,
    "lng": 10.974983799999999
  },
  {
    "name": "Friedhof Wümbach",
    "lat": 50.6916954,
    "lng": 10.9858342
  },
  {
    "name": "Ilmenauer Str. 22",
    "lat": 50.711385799999995,
    "lng": 10.9741117
  },
  {
    "name": "Friedhof Bücheloh",
    "lat": 50.7115636,
    "lng": 10.9739553
  },
  {
    "name": "Friedhof Unterpörlitz",
    "lat": 50.702891,
    "lng": 10.933508999999999
  },
  {
    "name": "Friedhof Heyda",
    "lat": 50.735145800000005,
    "lng": 10.933306499999999
  },
  {
    "name": "Friedhof Schmerfeld",
    "lat": 50.7558654,
    "lng": 10.9447379
  },
  {
    "name": "Friedhof Wipfra",
    "lat": 50.7559238,
    "lng": 10.9683946
  },
  {
    "name": "Friedhof Neuroda",
    "lat": 50.7553479,
    "lng": 10.983497
  },
  {
    "name": "Friedhof Kettmannshausen",
    "lat": 50.769276,
    "lng": 10.9782123
  },
  {
    "name": "In Reinsfeld 7",
    "lat": 50.776714399999996,
    "lng": 10.954252799999999
  },
  {
    "name": "Friedhof Reinsfeld",
    "lat": 50.776768999999994,
    "lng": 10.9546801
  },
  {
    "name": "Friedhof Dannheim",
    "lat": 50.797083,
    "lng": 10.9769822
  },
  {
    "name": "Friedhof Siegelbach",
    "lat": 50.8021112,
    "lng": 10.9359807
  },
  {
    "name": "Friedhof Branchewinda",
    "lat": 50.786656099999995,
    "lng": 10.9928754
  },
  {
    "name": "Friedhof Angelhausen",
    "lat": 50.8260979,
    "lng": 10.967433100000001
  },
  {
    "name": "Burggasse 25",
    "lat": 50.819205,
    "lng": 10.9764029
  },
  {
    "name": "Friedhof Oberndorf",
    "lat": 50.819218,
    "lng": 10.976502199999999
  },
  {
    "name": "Friedhof Arnstadt",
    "lat": 50.8388334,
    "lng": 10.961039099999999
  },
  {
    "name": "Friedhof Rudisleben",
    "lat": 50.856511499999996,
    "lng": 10.9696456
  },
  {
    "name": "Thuringia",
    "lat": 50.879829199999996,
    "lng": 10.9764761
  },
  {
    "name": "Friedhof Ichtershausen",
    "lat": 50.880019399999995,
    "lng": 10.9768221
  },
  {
    "name": "Friedhof Stedten",
    "lat": 50.9281857,
    "lng": 10.9812769
  },
  {
    "name": "Friedhof Molsdorf",
    "lat": 50.9105522,
    "lng": 10.9580328
  },
  {
    "name": "Friedhof Bischleben",
    "lat": 50.935141699999996,
    "lng": 10.9897868
  },
  {
    "name": "Friedhof Möbisburg",
    "lat": 50.9269573,
    "lng": 10.991835300000002
  },
  {
    "name": "Friedhof Thörey",
    "lat": 50.8880567,
    "lng": 10.9469146
  },
  {
    "name": "Friedhofsweg",
    "lat": 50.8897969,
    "lng": 10.990259499999999
  },
  {
    "name": "Friedhof Eischleben",
    "lat": 50.889983799999996,
    "lng": 10.9902011
  },
  {
    "name": "Friedhof Bindersleben",
    "lat": 50.971679599999995,
    "lng": 10.953906199999999
  },
  {
    "name": "Friedhof Schmira",
    "lat": 50.957074299999995,
    "lng": 10.9728054
  },
  {
    "name": "Grabstätte Förster",
    "lat": 50.9709169,
    "lng": 10.986192299999999
  },
  {
    "name": "Hauptfriedhof Erfurt",
    "lat": 50.969715799999996,
    "lng": 10.988318099999999
  },
  {
    "name": "Stauden- und Friedhofsgärtnerei Bartel",
    "lat": 50.9732242,
    "lng": 10.9876299
  },
  {
    "name": "Hauptfriedhof Erfurt große Feierhallen",
    "lat": 50.9712442,
    "lng": 10.990348599999999
  },
  {
    "name": "Hauptfriedhof Erfurt Kleine Trauerhalle",
    "lat": 50.971517899999995,
    "lng": 10.9905166
  },
  {
    "name": "Friedhof Alach",
    "lat": 50.9875032,
    "lng": 10.9332686
  },
  {
    "name": "gärtnerbetreute Partnergräber",
    "lat": 50.9702196,
    "lng": 10.9935761
  },
  {
    "name": "Friedhof Salomonsborn",
    "lat": 50.9990922,
    "lng": 10.9479075
  },
  {
    "name": "Friedhof Marbach",
    "lat": 50.992792599999994,
    "lng": 10.9788445
  },
  {
    "name": "Friedhof Tiefthal",
    "lat": 51.0233129,
    "lng": 10.947604799999999
  },
  {
    "name": "Friedhof Elxleben",
    "lat": 51.0487885,
    "lng": 10.946700199999999
  },
  {
    "name": "Friedhof Kühnhausen",
    "lat": 51.0346374,
    "lng": 10.973846799999999
  },
  {
    "name": "Friedhofstraße 27",
    "lat": 51.025354799999995,
    "lng": 10.9885973
  },
  {
    "name": "Friedhof Ringleben",
    "lat": 51.1048189,
    "lng": 10.9486577
  },
  {
    "name": "Friedhof Henschleben",
    "lat": 51.14263090000001,
    "lng": 10.970896999999999
  },
  {
    "name": "Friedhof Vehra",
    "lat": 51.1489763,
    "lng": 10.9875473
  },
  {
    "name": "Friedhof Schilfa",
    "lat": 51.1906256,
    "lng": 10.965948299999999
  },
  {
    "name": "Friedhof Hachelbich",
    "lat": 51.3429667,
    "lng": 10.9677436
  },
  {
    "name": "Friedhof Berka",
    "lat": 51.3463065,
    "lng": 10.9340431
  },
  {
    "name": "Friedhof Holzengel",
    "lat": 51.2952886,
    "lng": 10.9516205
  },
  {
    "name": "Friedhof Trebra",
    "lat": 51.2854538,
    "lng": 10.975731999999999
  },
  {
    "name": "Friedhof Feldengel",
    "lat": 51.2744357,
    "lng": 10.9434328
  },
  {
    "name": "Markt 1",
    "lat": 51.230189300000006,
    "lng": 10.951046
  },
  {
    "name": "Friedhof Greußen",
    "lat": 51.2300891,
    "lng": 10.9509391
  },
  {
    "name": "Friedhof Grüningen",
    "lat": 51.231838700000004,
    "lng": 10.9707159
  },
  {
    "name": "Friedhof Clingen",
    "lat": 51.2320774,
    "lng": 10.9354227
  },
  {
    "name": "Friedhof Obertopfstedt",
    "lat": 51.24747550000001,
    "lng": 10.950734299999999
  },
  {
    "name": "Friedhof Niedertopfstedt",
    "lat": 51.2490455,
    "lng": 10.9701527
  },
  {
    "name": "Friedhof Badra",
    "lat": 51.407827999999995,
    "lng": 10.9755544
  },
  {
    "name": "Friedhof Görsbach",
    "lat": 51.463955899999995,
    "lng": 10.9388913
  },
  {
    "name": "Friedhof Rottleberode",
    "lat": 51.5146191,
    "lng": 10.9447586
  },
  {
    "name": "06502",
    "lat": 51.7245533,
    "lng": 10.9401456
  },
  {
    "name": "Friedhof Altenbrak",
    "lat": 51.7242147,
    "lng": 10.9397123
  },
  {
    "name": "Neustadt 49",
    "lat": 51.576060299999995,
    "lng": 10.9604106
  },
  {
    "name": "Friedhof Stolberg Harz",
    "lat": 51.575466299999995,
    "lng": 10.960525599999999
  },
  {
    "name": "Friedhof Breitenstein",
    "lat": 51.6221746,
    "lng": 10.9515251
  },
  {
    "name": "Friedhof Cattenstedt",
    "lat": 51.7756548,
    "lng": 10.9734026
  },
  {
    "name": "Bärenröder Straße",
    "lat": 51.648186100000004,
    "lng": 10.9838335
  },
  {
    "name": "Waldfriedhof",
    "lat": 51.7880398,
    "lng": 10.9773342
  },
  {
    "name": "Waldfriedhof Blankenburg",
    "lat": 51.789066899999995,
    "lng": 10.9724638
  },
  {
    "name": "Friedhof Böhnshausen",
    "lat": 51.853337499999995,
    "lng": 10.9514389
  },
  {
    "name": "Friedhof Ströbeck",
    "lat": 51.9140077,
    "lng": 10.9399299
  },
  {
    "name": "Kirchstraße 338",
    "lat": 51.9719414,
    "lng": 10.9770287
  },
  {
    "name": "Friedhof Hoiersdorf",
    "lat": 52.1227635,
    "lng": 10.951272
  },
  {
    "name": "Friedhof Aspenstedt",
    "lat": 51.9383875,
    "lng": 10.953383899999999
  },
  {
    "name": "Holzberg 3",
    "lat": 51.94132,
    "lng": 10.9894286
  },
  {
    "name": "Hauptstraße 18",
    "lat": 52.162310899999994,
    "lng": 10.9650093
  },
  {
    "name": "Friedhof Esbeck",
    "lat": 52.162022,
    "lng": 10.965492399999999
  },
  {
    "name": "Müller-Mühlenbein-Straße 22",
    "lat": 52.1454369,
    "lng": 10.9713414
  },
  {
    "name": "Friedhof Schöningen",
    "lat": 52.1443843,
    "lng": 10.9715136
  },
  {
    "name": "Mühlenweg",
    "lat": 52.188874,
    "lng": 10.9422151
  },
  {
    "name": "Friedhof Wolsdorf",
    "lat": 52.188927199999995,
    "lng": 10.942815
  },
  {
    "name": "Friedhof Barmke",
    "lat": 52.272886899999996,
    "lng": 10.9430376
  },
  {
    "name": "Lower Saxony",
    "lat": 52.2429931,
    "lng": 10.967872199999999
  },
  {
    "name": "Friedhof Emmerstedt",
    "lat": 52.2429098,
    "lng": 10.9681719
  },
  {
    "name": "Pastorenweg 14A",
    "lat": 52.231963,
    "lng": 10.9940608
  },
  {
    "name": "St. Marienberg Friedhof",
    "lat": 52.232112,
    "lng": 10.9941444
  },
  {
    "name": "Fornbacher Weg 1",
    "lat": 50.311036099999995,
    "lng": 11.016757000000002
  },
  {
    "name": "Friedhof Oberwohlsbach",
    "lat": 50.311104199999996,
    "lng": 11.016686
  },
  {
    "name": "Friedhof Mittelberg",
    "lat": 50.3298339,
    "lng": 11.032146299999999
  },
  {
    "name": "Friedhof Schalkau",
    "lat": 50.3912082,
    "lng": 11.0090041
  },
  {
    "name": "Friedhof Grümpen",
    "lat": 50.391329299999995,
    "lng": 11.0395079
  },
  {
    "name": "Friedhof Truckenthal",
    "lat": 50.410248599999996,
    "lng": 11.0075481
  },
  {
    "name": "Friedhof Almerswind",
    "lat": 50.3700725,
    "lng": 11.0149838
  },
  {
    "name": "Friedhof Theuern",
    "lat": 50.4251675,
    "lng": 11.031735
  },
  {
    "name": "Friedhof Stelzen",
    "lat": 50.4418606,
    "lng": 10.9930647
  },
  {
    "name": "Friedhof Rauenstein",
    "lat": 50.4171475,
    "lng": 11.0430864
  },
  {
    "name": "Friedhof Weißenbrunn vorm Wald",
    "lat": 50.353028200000004,
    "lng": 11.00938
  },
  {
    "name": "Friedhof Roth",
    "lat": 50.365783199999996,
    "lng": 11.0211303
  },
  {
    "name": "Friedhof Friedrichshöhe",
    "lat": 50.4766221,
    "lng": 11.0166781
  },
  {
    "name": "Bestattungswald Großbreitenbach",
    "lat": 50.5722015,
    "lng": 11.0222798
  },
  {
    "name": "Friedhof Großbreitenbach",
    "lat": 50.5839583,
    "lng": 11.0174141
  },
  {
    "name": "Friedhof Böhlen",
    "lat": 50.5859129,
    "lng": 11.0420427
  },
  {
    "name": "Friedhof Oelze",
    "lat": 50.546664199999995,
    "lng": 11.0308227
  },
  {
    "name": "Friedhof Goldisthal",
    "lat": 50.5176176,
    "lng": 11.003579
  },
  {
    "name": "Friedhof Gillersdorf",
    "lat": 50.60757650000001,
    "lng": 11.018211899999999
  },
  {
    "name": "Friedhof Friedersdorf",
    "lat": 50.606767,
    "lng": 11.0392914
  },
  {
    "name": "Friedhof Möhrenbach",
    "lat": 50.6245542,
    "lng": 10.994119399999999
  },
  {
    "name": "Dorfstraße 12d",
    "lat": 50.6173794,
    "lng": 11.040339699999999
  },
  {
    "name": "Friedhof Willmersdorf",
    "lat": 50.617339199999996,
    "lng": 11.0399696
  },
  {
    "name": "Friedhof Angstedt",
    "lat": 50.6988705,
    "lng": 11.022023299999999
  },
  {
    "name": "Friedhof Jesuborn",
    "lat": 50.6588863,
    "lng": 11.0247309
  },
  {
    "name": "Friedhof Gräfinau",
    "lat": 50.7019642,
    "lng": 11.020952099999999
  },
  {
    "name": "Friedhof Gehren",
    "lat": 50.645041199999994,
    "lng": 11.0008713
  },
  {
    "name": "Friedhof Cottendorf",
    "lat": 50.7344266,
    "lng": 11.026425
  },
  {
    "name": "Friedhof Dörnfeld",
    "lat": 50.733450999999995,
    "lng": 11.0358179
  },
  {
    "name": "Friedhof Traßdorf",
    "lat": 50.748860099999995,
    "lng": 11.0122348
  },
  {
    "name": "Friedhof Oberwillingen",
    "lat": 50.766632699999995,
    "lng": 11.024007899999999
  },
  {
    "name": "Friedhof Griesheim",
    "lat": 50.7530773,
    "lng": 11.039266
  },
  {
    "name": "Kirchgasse 4",
    "lat": 50.7733141,
    "lng": 11.013351199999999
  },
  {
    "name": "Friedhof Behringen",
    "lat": 50.7733693,
    "lng": 11.013211199999999
  },
  {
    "name": "Rodaer Landstraße 25",
    "lat": 50.7860168,
    "lng": 11.0141565
  },
  {
    "name": "Friedhof Roda",
    "lat": 50.7859062,
    "lng": 11.0141513
  },
  {
    "name": "Friedhof Görbitzhausen",
    "lat": 50.7932515,
    "lng": 11.0104472
  },
  {
    "name": "An d. Wipfra 2",
    "lat": 50.8086947,
    "lng": 11.010821
  },
  {
    "name": "Friedhof Hausen",
    "lat": 50.8085422,
    "lng": 11.010691399999999
  },
  {
    "name": "Friedhof Niederwillingen",
    "lat": 50.7736581,
    "lng": 11.0391427
  },
  {
    "name": "Friedhof Alkersleben",
    "lat": 50.844775,
    "lng": 11.042747199999999
  },
  {
    "name": "Friedhof Kirchheim",
    "lat": 50.8835157,
    "lng": 11.0206711
  },
  {
    "name": "Friedhof Marlishausen",
    "lat": 50.8206138,
    "lng": 11.0189884
  },
  {
    "name": "Friedhof Dornheim",
    "lat": 50.8351939,
    "lng": 10.9908453
  },
  {
    "name": "Friedhof Ettischleben",
    "lat": 50.8387489,
    "lng": 11.034217000000002
  },
  {
    "name": "Hubertusstraße",
    "lat": 50.9309149,
    "lng": 11.009908399999999
  },
  {
    "name": "Friedhof Waltersleben",
    "lat": 50.9170739,
    "lng": 11.023339499999999
  },
  {
    "name": "Friedhof Rockhausen",
    "lat": 50.9004042,
    "lng": 11.0397045
  },
  {
    "name": "Alter Jüdischer Friedhof Erfurt",
    "lat": 50.9704066,
    "lng": 11.010794599999999
  },
  {
    "name": "Wagdstraße 13",
    "lat": 50.957068199999995,
    "lng": 10.9991591
  },
  {
    "name": "Wachsenburgweg 117",
    "lat": 50.9553806,
    "lng": 10.9935061
  },
  {
    "name": "Friedhof Hochheim",
    "lat": 50.9554366,
    "lng": 10.9935932
  },
  {
    "name": "Jüdisches Mahnmal",
    "lat": 50.9572601,
    "lng": 11.038670699999999
  },
  {
    "name": "Neuer Jüdischer Friedhof Erfurt",
    "lat": 50.9571761,
    "lng": 11.0382459
  },
  {
    "name": "Am Kirchberg",
    "lat": 51.0424588,
    "lng": 11.0100473
  },
  {
    "name": "Friedhof Mittelhausen",
    "lat": 51.042438999999995,
    "lng": 11.0097331
  },
  {
    "name": "Friedhof Gispersleben",
    "lat": 51.024961399999995,
    "lng": 10.9889513
  },
  {
    "name": "Friedhof Stotternheim",
    "lat": 51.055042099999994,
    "lng": 11.041316
  },
  {
    "name": "Thuringia",
    "lat": 51.1069446,
    "lng": 10.9952451
  },
  {
    "name": "Friedhof Haßleben",
    "lat": 51.1069451,
    "lng": 10.9951764
  },
  {
    "name": "Friedhof Riethnordhausen",
    "lat": 51.0874484,
    "lng": 11.0032324
  },
  {
    "name": "Friedhof Nödaer Warte",
    "lat": 51.0711629,
    "lng": 11.0193941
  },
  {
    "name": "Friedhof Oberbösa",
    "lat": 51.2900026,
    "lng": 11.0160108
  },
  {
    "name": "Dorfstraße",
    "lat": 51.276243799999996,
    "lng": 10.999328499999999
  },
  {
    "name": "Friedhof Niederbösa",
    "lat": 51.276068099999996,
    "lng": 10.9991849
  },
  {
    "name": "Friedhof Werningshausen",
    "lat": 51.1424908,
    "lng": 11.0044307
  },
  {
    "name": "In d. Pfarrgasse 108",
    "lat": 51.1412736,
    "lng": 11.0026681
  },
  {
    "name": "Friedhof Wundersleben",
    "lat": 51.154364799999996,
    "lng": 11.0364884
  },
  {
    "name": "Ernst-Thälmann-Straße 18",
    "lat": 51.1626583,
    "lng": 10.993354199999999
  },
  {
    "name": "Friedhof Straußfurt",
    "lat": 51.171768400000005,
    "lng": 10.992712500000001
  },
  {
    "name": "Friedhof Ottenhausen",
    "lat": 51.213618399999994,
    "lng": 10.9989212
  },
  {
    "name": "Friedhof Herrnschwende",
    "lat": 51.2244543,
    "lng": 11.0246061
  },
  {
    "name": "Friedhof Nausiß",
    "lat": 51.2231254,
    "lng": 11.0447984
  },
  {
    "name": "Friedhof Frömmstedt",
    "lat": 51.2595086,
    "lng": 11.039455199999999
  },
  {
    "name": "Friedhof Seega",
    "lat": 51.32701850000001,
    "lng": 11.0345602
  },
  {
    "name": "Friedhof Göllingen",
    "lat": 51.34478130000001,
    "lng": 11.0123859
  },
  {
    "name": "Friedhof Bendeleben",
    "lat": 51.3752412,
    "lng": 11.005936199999999
  },
  {
    "name": "Friedhof Steinthaleben",
    "lat": 51.396893299999995,
    "lng": 11.027823
  },
  {
    "name": "Friedhof Kelbra",
    "lat": 51.435949099999995,
    "lng": 11.0445049
  },
  {
    "name": "Friedhof Schwenda",
    "lat": 51.560797,
    "lng": 11.017324799999999
  },
  {
    "name": "Hauptstraße 36",
    "lat": 51.6876167,
    "lng": 11.038189899999999
  },
  {
    "name": "Blankenburger Str. 26a",
    "lat": 51.7600159,
    "lng": 11.0301416
  },
  {
    "name": "Friedhof",
    "lat": 51.7588733,
    "lng": 11.0322196
  },
  {
    "name": "Friedhof Timmenrode",
    "lat": 51.7747799,
    "lng": 11.0096736
  },
  {
    "name": "Bahnhofstraße 4B",
    "lat": 51.819375,
    "lng": 11.02918
  },
  {
    "name": "Friedhof Börnecke",
    "lat": 51.8193728,
    "lng": 11.028774799999999
  },
  {
    "name": "Kuckucksweg 2",
    "lat": 51.876478299999995,
    "lng": 11.035822399999999
  },
  {
    "name": "Jüdischer Friedhof Halberstadt",
    "lat": 51.8944161,
    "lng": 11.039053
  },
  {
    "name": "Friedhof Halberstadt",
    "lat": 51.9051568,
    "lng": 11.0469514
  },
  {
    "name": "Friedhof Aderstedt",
    "lat": 52.0338006,
    "lng": 10.9951818
  },
  {
    "name": "u. Bergstraße 12",
    "lat": 52.0484996,
    "lng": 11.037223
  },
  {
    "name": "Friedhof Wackersleben",
    "lat": 52.0726227,
    "lng": 11.0165202
  },
  {
    "name": "Friedhof",
    "lat": 52.1187409,
    "lng": 11.0243182
  },
  {
    "name": "Friedhof Büddenstedt",
    "lat": 52.1696824,
    "lng": 11.0124228
  },
  {
    "name": "Alversdorfer Str. 54",
    "lat": 52.141641199999995,
    "lng": 11.034787999999999
  },
  {
    "name": "Friedhof Sankt Stephani",
    "lat": 52.2187086,
    "lng": 11.0241817
  },
  {
    "name": "Friedhof Helmstedt",
    "lat": 52.219238,
    "lng": 11.024327999999999
  },
  {
    "name": "Friedhof Harbke",
    "lat": 52.1925673,
    "lng": 11.0431189
  },
  {
    "name": "Büro I RuheForst Harbker Wald",
    "lat": 52.1916193,
    "lng": 11.0448876
  },
  {
    "name": "Waldbestattung I RuheForst Harbker Wald, Bestattungswald",
    "lat": 52.1943852,
    "lng": 11.050217499999999
  },
  {
    "name": "Friedhof Bahrdorf",
    "lat": 52.3817439,
    "lng": 10.993365899999999
  },
  {
    "name": "Friedhof Einberg",
    "lat": 50.2863415,
    "lng": 11.044939399999999
  },
  {
    "name": "Friedhof Mönchröden",
    "lat": 50.2988904,
    "lng": 11.056315999999999
  },
  {
    "name": "Friedhof Thann",
    "lat": 50.3235466,
    "lng": 11.0971627
  },
  {
    "name": "Friedhof der Bergkirche",
    "lat": 50.3406544,
    "lng": 11.057677199999999
  },
  {
    "name": "Friedhof Haarbrücken",
    "lat": 50.3188726,
    "lng": 11.104169599999999
  },
  {
    "name": "Friedhof Rückerswind",
    "lat": 50.3511521,
    "lng": 11.054312099999999
  },
  {
    "name": "Friedhof Döhlau",
    "lat": 50.3708077,
    "lng": 11.0451262
  },
  {
    "name": "Friedhof Effelder",
    "lat": 50.3750328,
    "lng": 11.077315299999999
  },
  {
    "name": "Friedhof Meschenbach",
    "lat": 50.4135746,
    "lng": 11.0598727
  },
  {
    "name": "Friedhof Rabenäußig",
    "lat": 50.4005151,
    "lng": 11.0913658
  },
  {
    "name": "Friedhof Katzhütte",
    "lat": 50.5479598,
    "lng": 11.0490023
  },
  {
    "name": "Friedhof Scheibe-Alsbach",
    "lat": 50.4897601,
    "lng": 11.0656929
  },
  {
    "name": "Altstadtstraße 29",
    "lat": 50.464231299999994,
    "lng": 11.074043099999999
  },
  {
    "name": "Cemetery Steinheid",
    "lat": 50.4643765,
    "lng": 11.0742017
  },
  {
    "name": "Friedhof Siegmundsburg",
    "lat": 50.468117299999996,
    "lng": 11.0555205
  },
  {
    "name": "Friedhof Meuselbach",
    "lat": 50.574216,
    "lng": 11.098996399999999
  },
  {
    "name": "Friedhof Allersdorf",
    "lat": 50.6184957,
    "lng": 11.0662103
  },
  {
    "name": "Friedhof Wildenspring",
    "lat": 50.59847870000001,
    "lng": 11.0490005
  },
  {
    "name": "Friedhof Herschdorf",
    "lat": 50.6275835,
    "lng": 11.0529244
  },
  {
    "name": "Friedhof Dröbischau",
    "lat": 50.63058230000001,
    "lng": 11.0804963
  },
  {
    "name": "Friedhof Garsitz",
    "lat": 50.6504508,
    "lng": 11.079381
  },
  {
    "name": "Friedhof Oberschöbling",
    "lat": 50.6401969,
    "lng": 11.089495399999999
  },
  {
    "name": "Friedhof Egelsdorf",
    "lat": 50.6329352,
    "lng": 11.0869132
  },
  {
    "name": "Pennewitzer Hauptstraße 4",
    "lat": 50.660298999999995,
    "lng": 11.0545747
  },
  {
    "name": "Friedhof Pennewitz",
    "lat": 50.660756799999994,
    "lng": 11.0537248
  },
  {
    "name": "Friedhof Dörnfeld",
    "lat": 50.6628069,
    "lng": 11.0737489
  },
  {
    "name": "Friedhof Elxleben",
    "lat": 50.8657906,
    "lng": 11.0571871
  },
  {
    "name": "Friedhof Elleben",
    "lat": 50.862297399999996,
    "lng": 11.092422700000002
  },
  {
    "name": "Friedhof Wülfershausen",
    "lat": 50.8473244,
    "lng": 11.090159700000001
  },
  {
    "name": "Friedhof Osthausen",
    "lat": 50.8538705,
    "lng": 11.099250999999999
  },
  {
    "name": "Friedhof Gügleben",
    "lat": 50.8806595,
    "lng": 11.0852757
  },
  {
    "name": "Friedhof Singen",
    "lat": 50.7264505,
    "lng": 11.0567253
  },
  {
    "name": "Friedhof Gösselborn",
    "lat": 50.7291374,
    "lng": 11.0828967
  },
  {
    "name": "Friedhof Geilsdorf",
    "lat": 50.7437773,
    "lng": 11.0809894
  },